     2.11           OBSERVATION DATA    M (MIXED)           RINEX VERSION / TYPE
teqc  2012Jun6                          20190301 21:13:39UTCPGM / RUN BY / DATE
MSXP|IAx86-PII|bcc32 5.0|MSWin95->XP|486/DX+                COMMENT
BIT 2 OF LLI FLAGS DATA COLLECTED UNDER A/S CONDITION       COMMENT
-Unknown-                                                   MARKER NAME
-Unknown-           -Unknown-                               OBSERVER / AGENCY
1533745             LEICA               4.51/6.112          REC # / TYPE / VERS
                    LEIAT501        NONE                    ANT # / TYPE
  2346334.2046 -5239930.9245 -2772769.0802                  APPROX POSITION XYZ
        0.5360        0.0000        0.0000                  ANTENNA: DELTA H/E/N
     1     1                                                WAVELENGTH FACT L1/2
     6    L1    L2    C1    P2    S1    S2                  # / TYPES OF OBSERV
     1.0000                                                 INTERVAL
F03                                                         COMMENT
Project creator:                                            COMMENT
 SNR is mapped to RINEX snr flag value [0-9]                COMMENT
  L1 & L2: min(max(int(snr_dBHz/6), 0), 9)                  COMMENT
  2019     2    28    13     3   16.0000000     GPS         TIME OF FIRST OBS
    16                                                      LEAP SECONDS
                                                            END OF HEADER
 19  2 28 13  3 16.0000000  0 15G29G12G31G20G26G05G21G25R07R06R21R12
                                R10R11R22
 115346223.475 8  89880147.34047  21949655.900    21949651.180          49.850
        42.050
 125817373.604 7  98039503.01445  23942251.100    23942248.180          45.900
        35.850
 114778976.512 8  89438142.61246  21841713.560    21841708.160          49.750
        41.300
 117994514.422 7  91943759.56346  22453609.000    22453604.340          47.800
        38.500
 121423082.503 7  94615388.96146  23106043.620    23106042.120          45.250
        41.750
 130390709.847 7 101603131.35046  24812527.380    24812524.560          45.950
        36.850
 106197582.940 8  82751339.63947  20208727.640    20208721.760          49.800
        46.150
 112673756.916 8  87797722.06447  21441104.120    21441101.940          49.650
        44.750
 125756052.473 6  97810283.450 6  23492287.660    23492291.600          41.750
        38.150
 121600637.986 6                  22787907.520                          38.750

 116221227.492 7  90394292.172 7  21718714.560    21718716.000          43.350
        43.200
 108182863.403 7                  20252059.740                          45.900

 122169133.159 7  95020463.148 6  22918618.120    22918624.680          42.750
        37.850
 104746425.161 8  81469450.088 7  19601865.580    19601867.620          48.600
        46.300
 110683012.186 7  86086795.008 7  20734657.840    20734660.700          47.000
        45.450
 19  2 28 13  3 17.0000000  0 15G29G12G31G20G26G05G21G25R07R06R21R12
                                R10R11R22
 115347308.164 8  89880992.54447  21949862.300    21949857.600          49.950
        42.100
 125820385.223 7  98041849.73246  23942824.180    23942821.280          45.800
        36.200
 114779598.753 8  89438627.47546  21841831.980    21841826.560          49.750
        40.100
 117991382.122 7  91941318.81646  22453012.940    22453008.280          47.950
        38.550
 121419898.298 7  94612907.76746  23105437.660    23105436.160          44.950
        41.300
 130392818.424 7 101604774.39545  24812928.640    24812925.760          46.300
        34.400
 106196691.137 8  82750644.72847  20208557.940    20208552.060          50.000
        46.350
 112675590.815 8  87799151.07347  21441453.100    21441450.920          49.800
        43.350
 125752822.570 7  97807771.268 6  23491684.260    23491688.200          42.400
        38.750
 121599102.979 6                  22787619.840                          39.650

 116223448.786 7  90396019.839 7  21719129.660    21719131.100          43.850
        44.100
 108181008.993 7                  20251712.580                          46.250

 122173461.016 7  95023829.257 6  22919430.040    22919436.580          43.250
        38.050
 104748211.239 8  81470839.257 7  19602199.820    19602201.860          49.000
        46.950
 110683037.006 7  86086814.309 7  20734662.500    20734665.360          47.750
        46.150
 19  2 28 13  3 18.0000000  0 15G29G12G31G20G26G05G21G25R07R06R21R12
                                R10R11R22
 115348392.877 8  89881837.77146  21950068.720    21950064.000          50.000
        41.400
 125823397.120 7  98044196.66046  23943397.320    23943394.400          45.950
        37.650
 114780221.603 8  89439112.81346  21841950.500    21841945.080          49.200
        39.950
 117988250.000 7  91938878.20746  22452416.920    22452412.280          47.950
        38.300
 121416714.212 7  94610426.66546  23104831.740    23104830.180          44.750
        38.350
 130394927.470 7 101606417.80746  24813329.980    24813327.080          46.900
        36.100
 106195799.875 8  82749950.23847  20208388.360    20208382.460          49.950
        46.000
 112677425.191 8  87800580.45647  21441802.180    21441800.020          49.700
        44.050
 125749592.659 7  97805259.092 6  23491080.880    23491084.760          42.900
        38.550
 121597568.488 6                  22787332.300                          40.000

 116225670.057 7  90397747.483 7  21719544.760    21719546.220          43.250
        43.700
 108179155.405 7                  20251365.580                          45.900

 122177789.026 7  95027195.484 6  22920241.980    22920248.520          43.750
        38.350
 104749998.125 8  81472229.058 7  19602534.220    19602536.240          49.100
        46.100
 110683062.071 8  86086833.802 7  20734667.200    20734670.040          48.300
        46.650
 19  2 28 13  3 19.0000000  0 15G29G12G31G20G26G05G21G25R07R06R21R12
                                R10R11R22
 115349477.535 8  89882682.95746  21950275.120    21950270.400          50.100
        41.950
 125826409.209 7  98046543.73746  23943970.500    23943967.580          45.650
        37.100
 114780844.974 8  89439598.55446  21842069.120    21842063.720          48.550
        38.750
 117985117.957 8  91936437.65646  22451820.920    22451816.260          48.050
        39.300
 121413530.144 7  94607945.58346  23104225.720    23104224.000          44.550
        40.600
 130397036.831 7 101608061.46745  24813731.380    24813728.500          46.650
        34.500
 106194909.055 8  82749256.09047  20208218.840    20208212.940          49.900
        46.750
 112679259.994 8  87802010.17347  21442151.320    21442149.160          49.850
        44.550
 125746362.638 7  97802746.835 6  23490477.480    23490481.360          42.900
        37.850
 121596034.488 6                  22787044.840                          40.100

 116227891.215 7  90399475.045 7  21719959.840    21719961.300          43.800
        43.100
 108177302.474 7                  20251018.700                          45.650

 122182117.115 7  95030561.774 6  22921053.920    22921060.460          43.250
        37.500
 104751785.726 8  81473619.414 7  19602868.740    19602870.760          49.000
        45.800
 110683087.258 7  86086853.386 7  20734671.920    20734674.760          47.300
        45.950
 19  2 28 13  3 20.0000000  0 15G29G12G31G20G26G05G21G25R07R06R21R12
                                R10R11R22
 115350562.101 8  89883528.06947  21950481.520    21950476.780          50.150
        42.450
 125829421.391 7  98048890.86646  23944543.700    23944540.740          46.400
        37.050
 114781468.757 8  89440084.61547  21842187.820    21842182.420          50.200
        42.450
 117981985.971 7  91933997.15446  22451224.900    22451220.260          47.700
        38.300
 121410346.102 7  94605464.52046  23103619.800    23103618.220          45.050
        40.250
 130399146.449 7 101609705.32745  24814132.840    24814129.980          46.300
        34.050
 106194018.641 8  82748562.25847  20208049.400    20208043.500          50.000
        46.800
 112681095.147 8  87803440.15847  21442500.540    21442498.380          49.700
        44.600
 125743132.489 7  97800234.488 6  23489874.060    23489878.000          43.200
        38.600
 121594500.856 6                  22786757.440                          39.600

 116230112.162 7  90401202.448 7  21720374.860    21720376.360          43.350
        42.850
 108175450.265 7                  20250671.960                          46.250

 122186445.230 7  95033928.080 6  22921865.840    22921872.400          42.950
        37.150
 104753574.010 8  81475010.301 7  19603203.400    19603205.400          49.100
        45.850
 110683112.507 7  86086873.029 7  20734676.640    20734679.500          47.350
        45.450
 19  2 28 13  3 21.0000000  0 15G29G12G31G20G26G05G21G25R07R06R21R12
                                R10R11R22
 115351646.845 8  89884373.32447  21950687.940    21950683.200          50.100
        42.650
 125832434.021 7  98051238.36646  23945116.980    23945114.020          46.750
        37.100
 114782093.295 8  89440571.25546  21842306.680    21842301.260          49.150
        40.150
 117978854.275 7  91931556.87346  22450628.960    22450624.340          47.700
        38.350
 121407162.318 7  94602983.65146  23103014.000    23103012.460          44.850
        40.350
 130401256.648 7 101611349.64246  24814534.400    24814531.540          46.250
        36.900
 106193128.890 8  82747868.93947  20207880.080    20207874.180          49.950
        46.750
 112682930.933 8  87804870.64347  21442849.900    21442847.720          49.700
        44.750
 125739902.487 7  97797722.265 6  23489270.640    23489274.640          43.350
        38.350
 121592967.906 6                  22786470.140                          39.750

 116232333.168 7  90402929.895 7  21720789.900    21720791.440          43.550
        42.800
 108173598.971 7                  20250325.400                          46.050

 122190773.615 7  95037294.599 6  22922677.860    22922684.420          43.600
        37.250
 104755363.186 8  81476401.885 7  19603538.220    19603540.240          49.100
        45.950
 110683138.122 7  86086892.958 7  20734681.440    20734684.300          47.250
        45.650
 19  2 28 13  3 22.0000000  0 15G29G12G31G20G26G05G21G25R07R06R21R12
                                R10R11R22
 115352731.829 8  89885218.76047  21950894.400    21950889.660          50.100
        42.850
 125835447.119 7  98053586.23946  23945690.360    23945687.400          46.550
        37.300
 114782718.607 8  89441058.51146  21842425.680    21842420.260          48.100
        38.800
 117975722.952 7  91929116.88146  22450033.080    22450028.480          47.750
        38.350
 121403978.867 7  94600503.04446  23102408.240    23102406.720          45.300
        39.300
 130403367.459 7 101612994.42246  24814936.060    24814933.200          46.100
        36.950
 106192239.867 8  82747176.18747  20207710.920    20207705.000          50.000
        46.750
 112684767.408 8  87806301.66247  21443199.360    21443197.200          49.550
        44.750
 125736672.646 7  97795210.168 6  23488667.280    23488671.240          42.650
        38.000
 121591435.718 6                  22786182.980                          40.300

 116234554.331 7  90404657.464 7  21721204.980    21721206.520          43.800
        42.750
 108171748.680 7                  20249979.000                          46.150

 122195102.427 7  95040661.450 6  22923489.940    22923496.500          42.650
        37.250
 104757153.357 8  81477794.236 7  19603873.220    19603875.240          49.000
        46.100
 110683164.199 7  86086913.239 7  20734686.320    20734689.180          47.800
        45.100
 19  2 28 13  3 23.0000000  0 15G29G12G31G20G26G05G21G25R07R06R21R12
                                R10R11R22
 115353816.949 8  89886064.30447  21951100.900    21951096.140          50.000
        42.650
 125838460.588 7  98055934.40146  23946263.780    23946260.840          45.950
        37.100
 114783344.642 8  89441546.33347  21842544.800    21842539.400          49.800
        42.650
 117972591.902 7  91926677.10246  22449437.280    22449432.660          47.900
        37.850
 121400795.614 7  94598022.58346  23101802.480    23101800.840          45.000
        39.650
 130405478.774 7 101614639.59746  24815337.840    24815334.940          46.050
        36.000
 106191351.485 8  82746483.94247  20207541.880    20207535.960          50.000
        46.750
 112686604.461 8  87807733.13247  21443548.940    21443546.780          49.550
        45.150
 125733442.799 7  97792698.075 6  23488063.920    23488067.880          42.450
        38.600
 121589904.164 6                  22785895.940                          39.900

 116236775.556 7  90406385.079 7  21721620.060    21721621.620          43.650
        42.700
 108169899.269 7                  20249632.800                          46.100

 122199431.459 7  95044028.476 6  22924302.060    22924308.600          42.450
        36.100
 104758944.457 8  81479187.312 7  19604208.400    19604210.420          48.950
        46.100
 110683190.579 7  86086933.758 7  20734691.260    20734694.140          47.600
        45.600
 19  2 28 13  3 24.0000000  0 15G29G12G31G20G26G05G21G25R07R06R21R12
                                R10R11R22
 115354902.116 8  89886909.88947  21951307.400    21951302.640          50.050
        42.000
 125841474.295 7  98058282.74846  23946837.280    23946834.360          46.100
        36.850
 114783971.271 8  89442034.61346  21842664.040    21842658.640          49.750
        41.650
 117969461.041 7  91924237.47046  22448841.480    22448836.860          47.850
        38.850
 121397612.497 7  94595542.22446  23101196.820    23101195.200          45.200
        39.250
 130407590.510 7 101616285.10946  24815739.680    24815736.780          46.200
        36.450
 106190463.623 8  82745792.10747  20207372.920    20207367.000          49.850
        46.550
 112688442.018 8  87809164.99747  21443898.600    21443896.460          49.600
        44.600
 125730212.950 7  97790185.981 6  23487460.540    23487464.500          43.150
        37.500
 121588373.136 6                  22785609.060                          39.750

 116238996.749 7  90408112.670 7  21722035.120    21722036.720          43.850
        42.600
 108168050.666 7                  20249286.740                          45.800

 122203760.585 7  95047395.576 6  22925114.200    22925120.740          43.900
        36.650
 104760736.431 8  81480581.069 7  19604543.760    19604545.780          48.950
        45.750
 110683217.216 7  86086954.484 7  20734696.260    20734699.120          47.550
        45.000
 19  2 28 13  3 25.0000000  0 15G29G12G31G20G26G05G21G25R07R06R21R12
                                R10R11R22
 115355987.186 8  89887755.39647  21951513.880    21951509.140          49.900
        42.050
 125844488.184 7  98060631.24545  23947410.780    23947407.900          46.100
        35.650
 114784598.362 8  89442523.25447  21842783.380    21842777.960          50.050
        42.250
 117966330.222 7  91921797.87346  22448245.700    22448241.100          47.500
        38.150
 121394429.401 7  94593061.88546  23100591.060    23100589.420          45.100
        39.850
 130409702.554 7 101617930.86245  24816141.580    24816138.700          45.850
        35.750
 106189576.189 8  82745100.60747  20207204.040    20207198.120          49.850
        47.000
 112690279.956 8  87810597.15447  21444248.360    21444246.220          49.700
        45.100
 125726982.966 7  97787673.784 6  23486857.140    23486861.100          43.300
        37.700
 121586842.532 6                  22785322.200                          39.250

 116241217.787 7  90409840.137 7  21722450.160    21722451.780          43.800
        42.900
 108166202.735 7                  20248940.800                          46.050

 122208089.852 6  95050762.800 6  22925926.340    22925932.900          41.050
        38.100
 104762529.065 8  81481975.342 7  19604879.240    19604881.240          49.100
        45.800
 110683243.984 7  86086975.301 7  20734701.280    20734704.140          47.600
        45.600
 19  2 28 13  3 26.0000000  0 15G29G12G31G20G26G05G21G25R07R06R21R12
                                R10R11R22
 115357072.188 8  89888600.85647  21951720.360    21951715.620          49.900
        42.250
 125847502.228 7  98062979.85146  23947984.320    23947981.440          46.100
        37.600
 114785225.939 8  89443012.27546  21842902.800    21842897.380          49.800
        41.900
 117963199.464 7  91919358.34246  22447649.940    22447645.360          47.500
        37.800
 121391246.300 7  94590581.54946  23099985.360    23099983.700          45.050
        40.750
 130411814.857 7 101619576.82345  24816543.520    24816540.640          46.000
        35.150
 106188689.161 8  82744409.41947  20207035.260    20207029.320          49.850
        46.800
 112692118.265 8  87812029.60347  21444598.180    21444596.040          49.550
        45.400
 125723752.876 7  97785161.490 6  23486253.720    23486257.700          43.250
        38.050
 121585312.363 6                  22785035.460                          39.100

 116243438.635 7  90411567.461 7  21722865.180    21722866.800          43.800
        42.900
 108164355.458 7                  20248594.960                          46.050

 122212419.136 6  95054130.022 6  22926738.500    22926745.060          41.300
        37.550
 104764322.335 8  81483370.110 7  19605214.820    19605216.840          49.150
        45.850
 110683270.832 7  86086996.187 7  20734706.320    20734709.180          47.500
        45.300
 19  2 28 13  3 27.0000000  0 15G29G12G31G20G26G05G21G25R07R06R21R12
                                R10R11R22
 115358157.051 8  89889446.20447  21951926.800    21951922.060          49.950
        43.000
 125850516.356 7  98065328.52046  23948557.900    23948555.000          46.800
        37.900
 114785853.906 8  89443501.59547  21843022.300    21843016.880          49.750
        42.650
 117960068.687 7  91916918.78846  22447054.180    22447049.600          47.050
        38.200
 121388063.144 7  94588101.16746  23099379.600    23099378.200          44.950
        40.550
 130413927.400 7 101621222.96846  24816945.520    24816942.640          45.750
        36.600
 106187802.471 8  82743718.49447  20206866.520    20206860.580          49.750
        46.950
 112693956.865 8  87813462.28047  21444948.060    21444945.920          49.450
        45.250
 125720522.609 7  97782649.064 6  23485650.280    23485654.280          43.250
        38.200
 121583782.546 6                  22784748.780                          39.700

 116245659.239 7  90413294.598 7  21723280.160    21723281.780          43.800
        43.050
 108162508.796 7                  20248249.280                          46.000

 122216748.371 7  95057497.197 6  22927550.660    22927557.220          42.600
        37.300
 104766116.219 8  81484765.355 7  19605550.520    19605552.540          49.050
        46.050
 110683297.709 7  86087017.099 7  20734711.360    20734714.220          47.350
        45.350
 19  2 28 13  3 28.0000000  0 15G29G12G31G20G26G05G21G25R07R06R21R12
                                R10R11R22
 115359241.872 8  89890291.52047  21952133.240    21952128.500          49.700
        42.650
 125853530.689 7  98067677.33946  23949131.500    23949128.600          45.450
        38.150
 114786482.437 8  89443991.36647  21843141.920    21843136.480          50.000
        42.600
 117956938.036 7  91914479.31646  22446458.440    22446453.860          47.500
        38.900
 121384880.045 7  94585620.83546  23098773.860    23098772.580          45.150
        40.750
 130416040.353 7 101622869.41645  24817347.600    24817344.700          45.700
        35.700
 106186916.267 8  82743027.94647  20206697.880    20206691.940          49.750
        46.700
 112695795.904 8  87814895.29647  21445298.020    21445295.880          49.300
        45.250
 125717292.235 7  97780136.553 6  23485046.840    23485050.800          43.100
        38.500
 121582253.229 6                  22784462.200                          39.700

 116247879.734 7  90415021.652 7  21723695.120    21723696.760          43.700
        42.950
 108160662.877 7                  20247903.720                          46.100

 122221077.718 7  95060864.461 6  22928362.820    22928369.380          42.600
        36.700
 104767910.857 8  81486161.185 7  19605886.360    19605888.380          49.100
        46.000
 110683324.773 7  86087038.147 7  20734716.420    20734719.280          47.500
        45.300
 19  2 28 13  3 29.0000000  0 15G29G12G31G20G26G05G21G25R07R06R21R12
                                R10R11R22
 115360326.771 8  89891136.89747  21952339.700    21952334.940          49.800
        42.900
 125856545.319 7  98070026.39146  23949705.180    23949702.260          45.250
        37.150
 114787111.578 8  89444481.60147  21843261.640    21843256.200          49.650
        42.450
 117953807.578 7  91912039.97946  22445862.720    22445858.140          47.200
        38.550
 121381697.128 7  94583140.64046  23098168.200    23098166.820          44.900
        40.600
 130418153.712 7 101624516.18446  24817749.760    24817746.880          45.850
        36.200
 106186030.609 8  82742337.82147  20206529.360    20206523.400          49.700
        47.250
 112697635.474 8  87816328.72747  21445648.080    21445645.940          49.400
        45.350
 125714061.848 7  97777624.017 6  23484443.360    23484447.340          43.000
        39.050
 121580724.524 6                  22784175.740                          39.700

 116250100.188 7  90416748.670 7  21724110.060    21724111.720          43.850
        42.900
 108158817.799 7                  20247558.320                          45.900

 122225407.235 7  95064231.857 6  22929175.020    22929181.580          42.000
        37.600
 104769706.353 8  81487557.675 7  19606222.360    19606224.400          49.000
        45.900
 110683352.064 7  86087059.369 7  20734721.520    20734724.400          47.200
        45.600
 19  2 28 13  3 30.0000000  0 15G29G12G31G20G26G05G21G25R07R06R21R12
                                R10R11R22
 115361411.791 8  89891982.36746  21952546.160    21952541.420          50.700
        41.250
 125859560.296 7  98072375.71545  23950278.900    23950276.020          47.200
        35.900
 114787741.383 8  89444972.36146  21843381.500    21843376.060          50.350
        41.300
 117950677.355 8  91909600.84446  22445267.060    22445262.460          48.750
        36.250
 121378514.374 7  94580660.57146  23097562.480    23097561.120          46.100
        38.200
 130420267.545 7 101626163.32745  24818152.000    24818149.140          47.850
        32.900
 106185145.561 8  82741648.17347  20206360.940    20206354.980          50.700
        45.300
 112699475.603 8  87817762.59247  21445998.240    21445996.100          50.350
        44.150
 125710831.506 7  97775111.533 6  23483839.900    23483843.880          44.100
        37.350
 121579196.410 6                  22783889.360                          40.350

 116252320.686 7  90418475.721 6  21724525.000    21724526.680          45.100
        41.550
 108156973.586 7                  20247213.080                          47.200

 122229736.977 7  95067599.422 5  22929987.300    22929993.820          44.100
        35.300
 104771502.703 8  81488954.832 7  19606558.540    19606560.560          50.000
        44.400
 110683379.667 8  86087080.834 7  20734726.680    20734729.580          48.550
        44.250
 19  2 28 13  4 17.0000000  0 14G29G12G31G20G26G21G25R07R06R21R12R10
                                R11R22
 115412456.665 8  89931757.50347  21962259.780    21962255.040          48.350
        42.550
 126001571.331 6  98183033.55046  23977302.660    23977300.000          40.850
        38.500
 114818018.159 8  89468564.63846  21849143.000    21849137.500          48.250
        41.350
 117803758.676 7  91795118.82746  22417309.300    22417304.800          46.350
        41.000
 121229073.903 7  94464213.46046  23069125.080    23069123.820          43.750
        41.450
 106144153.132 8  82709706.00847  20198560.360    20198554.340          48.650
        47.350
 112786520.739 8  87885589.93147  21462562.480    21462560.240          48.150
        44.600
 125558990.040 6  97657012.817 6  23455474.480    23455478.640          41.550
        39.550
 121507995.192 6                  22770546.560                          37.800

 116356630.944 7  90499605.849 7  21744018.140    21744019.800          43.650
        42.900
 108071202.068 7                  20231156.580                          46.300

 122433410.716 7  95226012.203 5  22968196.260    22968202.640          45.150
        34.700
 104856839.227 8  81555327.651 7  19622528.180    19622530.260          49.050
        45.650
 110684940.302 8  86088294.632 7  20735019.180    20735021.880          48.050
        45.250
 19  2 28 13  4 18.0000000  0 14G29G12G31G20G26G21G25R07R06R21R12R10
                                R11R22
 115413543.761 8  89932604.59346  21962466.640    21962461.900          48.800
        41.000
 126004599.401 6  98185393.09746  23977878.900    23977876.200          41.100
        37.550
 114818676.692 8  89469077.77846  21849268.300    21849262.820          48.800
        41.300
 117800637.072 7  91792686.41046  22416715.280    22416710.760          47.150
        40.250
 121225897.463 7  94461738.31646  23068520.620    23068519.420          44.650
        41.750
 106143293.815 8  82709036.41147  20198396.840    20198390.820          49.150
        46.400
 112788384.655 8  87887042.33147  21462917.180    21462914.920          48.750
        44.750
 125555759.123 6  97654499.879 6  23454870.900    23454875.100          40.500
        39.350
 121506493.561 6                  22770265.160                          36.400

 116358849.145 6  90501331.115 7  21744432.660    21744434.340          41.700
        42.150
 108069396.453 7                  20230818.560                          44.650

 122437747.947 7  95229385.594 5  22969009.920    22969016.300          43.600
        34.600
 104858674.170 7  81556754.831 7  19622871.560    19622873.660          47.600
        45.450
 110684979.040 7  86088324.764 7  20735026.440    20735029.140          46.450
        44.600
 19  2 28 13  4 19.0000000  0 14G29G12G31G20G26G21G25R07R06R21R12R10
                                R11R22
 115414630.907 7  89933451.72047  21962673.520    21962668.780          47.700
        42.350
 126007627.757 6  98187752.85546  23978455.180    23978452.460          39.100
        38.400
 114819335.825 7  89469591.39146  21849393.720    21849388.240          47.750
        41.950
 117797515.686 7  91790254.16946  22416121.300    22416116.780          46.050
        40.800
 121222721.225 7  94459263.32546  23067916.200    23067914.980          43.300
        41.600
 106142435.050 8  82708367.24347  20198233.420    20198227.400          48.100
        47.600
 112790249.079 7  87888495.12747  21463271.960    21463269.720          47.500
        44.850
 125552528.182 6  97651986.933 6  23454267.300    23454271.580          40.750
        39.850
 121504992.533 6                  22769983.880                          37.600

 116361067.318 7  90503056.360 7  21744847.160    21744848.840          42.450
        42.050
 108067591.660 7                  20230480.680                          45.400

 122442085.311 7  95232759.092 5  22969823.620    22969829.980          44.150
        35.050
 104860509.957 8  81558182.663 7  19623215.120    19623217.200          48.100
        45.400
 110685018.032 7  86088355.089 7  20735033.720    20735036.440          46.750
        44.400
 19  2 28 13  4 20.0000000  0 14G29G12G31G20G26G21G25R07R06R21R12R10
                                R11R22
 115415718.227 8  89934298.98046  21962880.420    21962875.700          49.400
        41.200
 126010656.431 7  98190112.85746  23979031.520    23979028.820          43.700
        36.650
 114819995.669 8  89470105.55246  21849519.300    21849513.800          49.550
        40.450
 117794394.582 8  91787822.14646  22415527.360    22415522.840          48.100
        39.750
 121219545.197 7  94456788.49246  23067311.840    23067310.600          45.800
        40.200
 106141576.924 8  82707698.57447  20198070.120    20198064.080          49.950
        46.450
 112792114.104 8  87889948.38947  21463626.860    21463624.620          49.250
        43.200
 125549297.336 6  97649474.066 6  23453663.740    23453668.060          41.850
        38.250
 121503492.110 6                  22769702.700                          38.850

 116363285.565 7  90504781.659 6  21745261.700    21745263.380          43.350
        41.900
 108065787.764 7                  20230142.980                          46.350

 122446422.934 7  95236132.800 5  22970637.360    22970643.700          45.100
        33.700
 104862346.663 8  81559611.210 7  19623558.820    19623560.920          49.000
        45.050
 110685057.347 7  86088385.665 7  20735041.100    20735043.800          47.850
        44.650
 19  2 28 13  4 21.0000000  0 14G29G12G31G20G26G21G25R07R06R21R12R10
                                R11R22
 115416805.901 8  89935146.51046  21963087.400    21963082.680          48.700
        41.650
 126013685.728 7  98192473.34846  23979608.000    23979605.260          42.050
        40.300
 114820656.426 8  89470620.42246  21849645.040    21849639.560          48.900
        41.850
 117791273.981 7  91785390.51546  22414933.520    22414929.000          47.200
        40.100
 121216369.642 7  94454314.03446  23066707.540    23066706.320          44.750
        40.650
 106140719.657 8  82707030.56947  20197906.980    20197900.940          49.150
        47.000
 112793979.957 8  87891402.29447  21463981.940    21463979.660          48.600
        44.350
 125546066.813 6  97646961.445 6  23453060.240    23453064.600          39.600
        37.750
 121501992.579 6                  22769421.660                          37.050

 116365504.042 7  90506507.137 7  21745676.280    21745677.980          42.550
        42.200
 108063985.002 7                  20229805.500                          45.650

 122450761.015 7  95239506.864 5  22971451.180    22971457.520          44.250
        33.550
 104864184.462 8  81561040.605 7  19623902.740    19623904.840          48.400
        45.150
 110685097.222 7  86088416.671 7  20735048.580    20735051.260          47.050
        44.600
 19  2 28 13  4 22.0000000  0 14G29G12G31G20G26G21G25R07R06R21R12R10
                                R11R22
 115417893.394 8  89935993.90346  21963294.340    21963289.620          49.100
        41.950
 126016715.064 7  98194833.87046  23980184.460    23980181.720          44.100
        37.600
 114821317.583 8  89471135.60946  21849770.840    21849765.380          49.400
        40.750
 117788153.342 7  91782958.85446  22414339.680    22414335.160          47.100
        39.400
 121213193.995 7  94451839.50646  23066103.240    23066102.040          45.550
        40.300
 106139862.713 8  82706362.82147  20197743.920    20197737.880          49.650
        46.700
 112795846.091 8  87892856.41947  21464337.060    21464334.780          49.200
        43.600
 125542836.128 6  97644448.701 6  23452456.700    23452461.100          41.650
        37.750
 121500493.416 6                  22769140.740                          38.600

 116367722.244 7  90508232.401 7  21746090.840    21746092.500          44.300
        42.650
 108062182.853 7                  20229468.140                          46.600

 122455099.037 7  95242880.873 5  22972264.980    22972271.320          44.750
        35.200
 104866022.840 8  81562470.451 7  19624246.760    19624248.880          49.200
        45.800
 110685137.116 7  86088447.700 7  20735056.060    20735058.720          47.750
        45.100
 19  2 28 13  4 23.0000000  0 14G29G12G31G20G26G21G25R07R06R21R12R10
                                R11R22
 115418980.660 8  89936841.12647  21963501.240    21963496.540          48.100
        42.550
 126019744.421 7  98197194.42446  23980760.920    23980758.200          42.000
        38.000
 114821979.064 8  89471651.03447  21849896.720    21849891.240          48.900
        42.750
 117785032.628 7  91780527.14046  22413745.840    22413741.320          45.650
        39.850
 121210018.212 7  94449364.86347  23065498.920    23065497.720          43.850
        42.000
 106139006.043 8  82705695.28747  20197580.900    20197574.860          48.300
        47.100
 112797712.438 8  87894310.71547  21464692.220    21464689.920          48.000
        44.100
 125539605.163 7  97641935.734 6  23451853.100    23451857.540          42.650
        37.250
 121498994.491 6                  22768859.820                          40.900

 116369940.159 7  90509957.442 7  21746505.320    21746506.980          45.300
        42.850
 108060381.252 7                  20229130.880                          47.150

 122459436.943 7  95246254.801 6  22973078.760    22973085.100          44.900
        36.000
 104867861.756 8  81563900.717 7  19624590.880    19624593.000          49.850
        45.900
 110685176.976 8  86088478.697 7  20735063.520    20735066.200          48.450
        45.350
 19  2 28 13  4 24.0000000  0 14G29G12G31G20G26G21G25R07R06R21R12R10
                                R11R22
 115420068.074 8  89937688.46946  21963708.160    21963703.460          49.000
        41.050
 126022774.207 7  98199555.30446  23981337.480    23981334.780          44.100
        37.800
 114822641.230 8  89472166.99146  21850022.720    21850017.240          50.000
        41.800
 117781912.212 7  91778095.65346  22413152.040    22413147.500          46.550
        39.000
 121206842.668 7  94446890.41546  23064894.660    23064893.460          44.900
        40.650
 106138149.984 8  82705028.23347  20197417.980    20197411.960          49.250
        45.650
 112799579.376 8  87895765.47247  21465047.480    21465045.200          49.100
        43.500
 125536374.203 7  97639422.761 6  23451249.540    23451253.960          42.350
        38.350
 121497496.232 6                  22768579.040                          38.300

 116372158.141 7  90511682.537 7  21746919.800    21746921.480          44.000
        42.850
 108058580.546 7                  20228793.780                          45.800

 122463775.053 7  95249628.887 5  22973892.580    22973898.920          43.550
        34.200
 104869701.578 8  81565331.693 7  19624935.180    19624937.300          48.850
        45.600
 110685217.155 7  86088509.954 7  20735071.060    20735073.720          47.300
        45.050
 19  2 28 13  4 25.0000000  0 14G29G12G31G20G26G21G25R07R06R21R12R10
                                R11R22
 115421155.796 8  89938536.05146  21963915.160    21963910.460          49.050
        41.250
 126025804.441 7  98201916.51046  23981914.140    23981911.400          42.700
        37.700
 114823304.255 8  89472683.62646  21850148.900    21850143.400          49.550
        41.150
 117778792.224 7  91775664.48346  22412558.340    22412553.780          47.000
        38.950
 121203667.525 7  94444416.28046  23064290.480    23064289.280          45.000
        40.600
 106137294.748 8  82704361.81747  20197255.240    20197249.220          49.450
        46.050
 112801447.076 8  87897220.82347  21465402.900    21465400.600          49.150
        43.350
 125533143.574 7  97636910.052 6  23450646.020    23450650.440          43.250
        38.900
 121495998.779 6                  22768298.440                          39.000

 116374376.362 7  90513407.820 7  21747334.320    21747336.020          43.800
        42.650
 108056780.921 7                  20228456.880                          46.000

 122468113.588 7  95253003.307 6  22974706.460    22974712.820          44.000
        36.850
 104871542.529 8  81566763.546 7  19625279.680    19625281.820          48.650
        45.900
 110685257.858 7  86088541.614 7  20735078.700    20735081.340          47.450
        45.250
 19  2 28 13  4 26.0000000  0 14G29G12G31G20G26G21G25R07R06R21R12R10
                                R11R22
 115422243.785 8  89939383.83946  21964122.200    21964117.500          49.150
        41.000
 126028835.254 7  98204278.18446  23982490.900    23982488.160          43.250
        37.250
 114823968.116 8  89473200.93246  21850275.240    21850269.740          49.550
        40.950
 117775672.690 7  91773233.66945  22411964.700    22411960.140          44.750
        34.350
 121200492.717 7  94441942.40946  23063686.320    23063685.160          45.000
        40.550
 106136440.256 8  82703695.98147  20197092.640    20197086.620          49.450
        45.950
 112803315.511 8  87898676.74447  21465758.460    21465756.160          49.200
        43.800
 125529913.120 7  97634397.474 6  23450042.520    23450046.960          44.800
        38.550
 121494502.156 6                  22768017.980                          39.100

 116376594.729 7  90515133.219 7  21747748.880    21747750.580          44.150
        42.800
 108054982.343 7                  20228120.180                          46.200

 122472452.431 7  95256377.967 5  22975520.420    22975526.780          42.700
        35.150
 104873384.464 8  81568196.171 7  19625624.380    19625626.500          49.100
        45.300
 110685299.020 7  86088573.635 7  20735086.420    20735089.060          47.450
        45.150
 19  2 28 13  4 27.0000000  0 14G29G12G31G20G26G21G25R07R06R21R12R10
                                R11R22
 115423331.961 8  89940231.76646  21964329.260    21964324.580          49.150
        41.250
 126031866.401 7  98206640.09646  23983067.700    23983064.960          43.700
        38.300
 114824632.696 8  89473718.78846  21850401.700    21850396.200          49.550
        40.850
 117772553.348 7  91770803.01745  22411371.120    22411366.540          45.750
        35.150
 121197318.226 7  94439468.78646  23063082.240    23063081.080          45.200
        40.550
 106135586.441 8  82703030.67147  20196930.160    20196924.140          49.550
        45.950
 112805184.546 8  87900133.13347  21466114.120    21466111.820          48.800
        43.850
 125526682.845 7  97631885.024 6  23449439.080    23449443.520          44.300
        39.350
 121493006.222 6                  22767737.640                          39.200

 116378813.169 7  90516858.670 7  21748163.440    21748165.140          44.250
        42.450
 108053184.714 7                  20227783.660                          46.100

 122476791.864 6  95259753.073 5  22976334.440    22976340.860          40.750
        32.550
 104875227.318 8  81569629.500 7  19625969.240    19625971.380          49.050
        45.700
 110685340.561 7  86088605.943 7  20735094.200    20735096.840          47.550
        45.150
 19  2 28 13  4 28.0000000  0 14G29G12G31G20G26G21G25R07R06R21R12R10
                                R11R22
 115424420.158 8  89941079.71046  21964536.340    21964531.680          49.100
        40.900
 126034897.849 7  98209002.25546  23983644.560    23983641.800          45.000
        39.400
 114825297.863 8  89474237.09946  21850528.260    21850522.780          49.550
        41.250
 117769434.280 7  91768372.57246  22410777.580    22410773.020          47.650
        39.900
 121194143.822 7  94436995.22746  23062478.180    23062476.960          45.150
        39.950
 106134733.155 8  82702365.77247  20196767.780    20196761.760          49.600
        46.300
 112807054.083 8  87901589.91547  21466469.880    21466467.580          49.000
        43.800
 125523452.541 7  97629372.550 6  23448835.640    23448840.060          43.900
        40.550
 121491510.845 6                  22767457.420                          38.950

 116381031.558 7  90518584.082 7  21748578.000    21748579.700          44.350
        42.400
 108051387.875 7                  20227447.280                          46.250

 122481131.024 6  95263127.986 5  22977148.460    22977154.860          40.100
        33.200
 104877070.968 8  81571063.448 7  19626314.260    19626316.380          49.100
        45.700
 110685382.291 7  86088638.400 7  20735102.040    20735104.640          47.650
        45.200
 19  2 28 13  4 29.0000000  0 14G29G12G31G20G26G21G25R07R06R21R12R10
                                R11R22
 115425508.276 8  89941927.59046  21964743.400    21964738.740          49.150
        41.300
 126037929.382 7  98211364.48346  23984221.460    23984218.660          42.550
        38.050
 114825963.513 8  89474755.79046  21850654.940    21850649.440          49.650
        41.050
 117766315.248 7  91765942.14846  22410184.060    22410179.480          47.700
        39.650
 121190969.428 7  94434521.67146  23061874.120    23061872.860          45.200
        40.150
 106133880.286 8  82701701.19747  20196605.480    20196599.460          49.650
        45.800
 112808923.990 8  87903046.98647  21466825.720    21466823.420          49.100
        43.800
 125520222.105 7  97626859.985 6  23448232.160    23448236.600          43.000
        40.100
 121490015.849 6                  22767177.260                          39.100

 116383249.784 7  90520309.368 7  21748992.540    21748994.220          44.550
        42.600
 108049591.715 7                  20227111.040                          46.350

 122485470.441 6  95266503.094 5  22977962.520    22977968.940          40.100
        33.500
 104878915.300 8  81572497.926 7  19626659.400    19626661.520          49.050
        45.650
 110685424.110 7  86088670.923 7  20735109.880    20735112.480          47.700
        45.250
 19  2 28 13  4 30.0000000  0 14G29G12G31G20G26G21G25R07R06R21R12R10
                                R11R22
 115426596.184 8  89942775.30646  21964950.420    21964945.760          49.100
        41.000
 126040960.959 7  98213726.76346  23984798.360    23984795.560          42.650
        38.200
 114826629.484 8  89475274.72646  21850781.660    21850776.180          49.550
        41.600
 117763196.127 7  91763511.66646  22409590.500    22409585.920          47.850
        39.950
 121187794.930 7  94432048.04046  23061270.040    23061268.780          45.550
        40.350
 106133027.672 8  82701036.82347  20196443.240    20196437.220          49.600
        46.550
 112810794.126 8  87904504.23047  21467181.600    21467179.300          49.100
        43.350
 125516991.354 7  97624347.195 6  23447628.640    23447633.080          43.300
        40.050
 121488521.171 6                  22766897.160                          38.650

 116385467.651 7  90522034.374 7  21749407.020    21749408.680          44.600
        42.400
 108047796.075 7                  20226774.900                          46.300

 122489809.722 6  95269878.090 5  22978776.600    22978782.980          39.550
        32.700
 104880760.155 8  81573932.811 7  19627004.640    19627006.780          49.150
        45.750
 110685465.872 7  86088703.405 7  20735117.700    20735120.300          47.700
        45.050
 19  2 28 13  4 31.0000000  0 14G29G12G31G20G26G21G25R07R06R21R12R10
                                R11R22
 115427683.929 8  89943622.89846  21965157.420    21965152.760          49.150
        41.100
 126043992.603 6  98216089.09246  23985375.260    23985372.440          41.500
        37.850
 114827295.862 8  89475793.98346  21850908.460    21850902.980          49.550
        41.500
 117760077.030 7  91761081.19846  22408996.960    22408992.360          47.850
        39.900
 121184620.339 7  94429574.33946  23060665.940    23060664.680          45.550
        40.950
 106132175.406 8  82700372.71947  20196281.060    20196275.040          49.600
        46.150
 112812664.558 8  87905961.71247  21467537.540    21467535.220          49.100
        43.700
 125513760.460 7  97621834.305 6  23447025.060    23447029.540          42.250
        39.600
 121487026.872 6                  22766617.120                          38.750

 116387685.288 7  90523759.205 7  21749821.460    21749823.100          44.600
        42.350
 108046001.050 7                  20226438.860                          46.350

 122494148.930 6  95273253.028 5  22979590.600    22979597.000          40.050
        33.250
 104882605.606 8  81575368.160 7  19627350.000    19627352.120          49.200
        45.650
 110685507.682 7  86088735.926 7  20735125.540    20735128.120          47.650
        45.050
 19  2 28 13  4 32.0000000  0 14G29G12G31G20G26G21G25R07R06R21R12R10
                                R11R22
 115428771.729 8  89944470.53646  21965364.420    21965359.760          49.050
        41.250
 126047024.543 7  98218451.65746  23985952.200    23985949.440          43.150
        38.400
 114827962.836 8  89476313.70646  21851035.380    21851029.900          49.550
        41.750
 117756958.114 7  91758650.87046  22408403.420    22408398.860          47.900
        40.200
 121181445.909 7  94427100.75546  23060061.880    23060060.620          45.600
        40.400
 106131323.690 8  82699709.04747  20196118.980    20196112.960          49.500
        46.300
 112814535.490 8  87907419.58147  21467893.560    21467891.260          49.050
        43.750
 125510529.484 6  97619321.344 6  23446421.460    23446425.980          41.750
        39.750
 121485533.075 6                  22766337.160                          39.100

 116389902.914 7  90525484.028 7  21750235.880    21750237.500          44.500
        42.600
 108044206.828 7                  20226102.980                          46.400

 122498488.317 6  95276628.107 5  22980404.660    22980411.060          39.800
        32.700
 104884451.875 8  81576804.144 7  19627695.500    19627697.640          49.150
        45.750
 110685549.744 7  86088768.643 7  20735133.420    20735136.000          47.650
        45.150
 19  2 28 13  4 33.0000000  0 14G29G12G31G20G26G21G25R07R06R21R12R10
                                R11R22
 115429859.761 8  89945318.35146  21965571.460    21965566.800          49.000
        41.150
 126050056.937 7  98220814.56046  23986529.240    23986526.500          43.750
        36.900
 114828630.593 8  89476834.03446  21851162.460    21851156.980          49.550
        41.800
 117753839.571 7  91756220.84146  22407810.000    22407805.440          47.850
        39.400
 121178271.807 7  94424627.42746  23059457.860    23059456.620          45.400
        40.200
 106130472.682 8  82699045.92647  20195957.040    20195951.040          49.600
        46.350
 112816407.108 8  87908877.98947  21468249.720    21468247.420          49.050
        43.900
 125507298.717 6  97616808.540 6  23445817.920    23445822.400          41.750
        39.450
 121484040.040 6                  22766057.380                          39.450

 116392120.675 7  90527208.950 7  21750650.320    21750651.940          44.650
        42.750
 108042413.601 7                  20225767.280                          46.300

 122502828.009 6  95280003.414 5  22981218.780    22981225.200          39.850
        32.650
 104886299.151 8  81578240.914 7  19628041.200    19628043.320          49.150
        45.850
 110685592.227 7  86088801.685 7  20735141.380    20735143.960          47.700
        45.100
 19  2 28 13  4 34.0000000  0 14G29G12G31G20G26G21G25R07R06R21R12R10
                                R11R22
 115430947.968 8  89946166.30346  21965778.540    21965773.880          49.050
        41.250
 126053089.744 7  98223177.77446  23987106.360    23987103.620          43.200
        37.350
 114829299.081 8  89477354.93646  21851289.660    21851284.180          49.600
        41.500
 117750721.353 7  91753791.06346  22407216.620    22407212.080          47.800
        39.800
 121175097.965 7  94422154.30446  23058853.900    23058852.660          45.650
        41.000
 106129622.357 8  82698383.33547  20195795.240    20195789.220          49.600
        46.150
 112818279.359 8  87910336.88547  21468606.000    21468603.700          49.150
        43.750
 125504068.158 7  97614295.898 6  23445214.420    23445218.880          42.650
        40.900
 121482547.708 6                  22765777.720                          38.700

 116394338.520 7  90528933.941 7  21751064.780    21751066.400          44.550
        42.850
 108040621.300 7                  20225431.780                          46.450

 122507167.985 6  95283378.947 5  22982032.960    22982039.360          40.600
        32.300
 104888147.354 8  81579678.404 7  19628387.060    19628389.200          49.200
        45.950
 110685635.073 7  86088835.007 7  20735149.400    20735151.980          47.750
        45.350
 19  2 28 13  4 35.0000000  0 14G29G12G31G20G26G21G25R07R06R21R12R10
                                R11R22
 115432036.131 8  89947014.22046  21965985.600    21965980.960          49.050
        41.400
 126056122.688 7  98225541.10146  23987683.520    23987680.760          42.100
        37.100
 114829968.079 8  89477876.23446  21851416.960    21851411.500          49.600
        41.550
 117747603.210 7  91751361.34146  22406623.260    22406618.700          47.850
        40.000
 121171924.171 7  94419681.21546  23058249.960    23058248.720          45.600
        40.800
 106128772.471 8  82697721.08547  20195633.500    20195627.500          49.600
        46.450
 112820152.001 8  87911796.08747  21468962.360    21468960.060          49.100
        43.600
 125500837.407 6  97611783.085 6  23444610.900    23444615.340          41.750
        40.100
 121481055.805 6                  22765498.120                          39.100

 116396556.190 7  90530658.795 7  21751479.200    21751480.820          44.650
        42.750
 108038829.712 7                  20225096.400                          46.400

 122511508.038 6  95286754.546 5  22982847.100    22982853.540          40.550
        33.200
 104889996.249 8  81581116.431 7  19628733.040    19628735.200          49.250
        45.850
 110685678.055 7  86088868.438 7  20735157.460    20735160.020          47.850
        45.350
 19  2 28 13  4 36.0000000  0 14G29G12G31G20G26G21G25R07R06R21R12R10
                                R11R22
 115433124.260 8  89947862.11246  21966192.660    21966188.020          48.950
        41.200
 126059155.905 7  98227904.64346  23988260.720    23988257.980          42.400
        39.550
 114830637.586 8  89478397.92446  21851544.360    21851538.900          49.550
        41.650
 117744485.182 7  91748931.71146  22406029.920    22406025.360          47.850
        40.000
 121168750.421 7  94417208.16546  23057646.040    23057644.780          45.600
        40.550
 106127923.052 8  82697059.19947  20195471.860    20195465.840          49.600
        46.400
 112822025.080 8  87913255.62547  21469318.800    21469316.500          49.050
        44.050
 125497606.591 7  97609270.224 6  23444007.380    23444011.800          43.000
        40.350
 121479564.406 6                  22765218.660                          39.750

 116398773.738 7  90532383.551 7  21751893.620    21751895.220          44.650
        42.450
 108037038.861 7                  20224761.140                          46.550

 122515848.145 6  95290130.189 5  22983661.300    22983667.760          40.450
        32.350
 104891845.887 8  81582555.038 7  19629079.180    19629081.320          49.250
        45.850
 110685721.184 7  86088901.983 7  20735165.540    20735168.080          47.800
        45.350
 19  2 28 13  4 37.0000000  0 14G29G12G31G20G26G21G25R07R06R21R12R10
                                R11R22
 115434212.386 8  89948709.99646  21966399.740    21966395.080          49.050
        41.500
 126062189.235 7  98230268.26046  23988837.920    23988835.200          43.900
        37.100
 114831307.653 8  89478920.05046  21851671.860    21851666.420          49.550
        41.600
 117741367.298 7  91746502.19346  22405436.600    22405432.060          47.900
        40.050
 121165576.774 7  94414735.18946  23057042.140    23057040.860          45.600
        40.350
 106127074.130 8  82696397.69947  20195310.320    20195304.300          49.650
        46.650
 112823898.605 8  87914715.50947  21469675.320    21469673.020          49.100
        44.150
 125494375.725 7  97606757.322 6  23443403.840    23443408.260          42.300
        40.400
 121478073.484 6                  22764939.300                          39.450

 116400991.218 7  90534108.257 7  21752308.020    21752309.600          44.750
        42.650
 108035248.785 7                  20224426.040                          46.500

 122520188.415 6  95293505.965 5  22984475.500    22984482.000          40.700
        32.650
 104893696.278 8  81583994.231 7  19629425.440    19629427.600          49.300
        45.850
 110685764.492 7  86088935.667 7  20735173.660    20735176.200          47.850
        45.400
 19  2 28 13  4 38.0000000  0 14G29G12G31G20G26G21G25R07R06R21R12R10
                                R11R22
 115435300.307 8  89949557.72346  21966606.760    21966602.120          49.050
        41.850
 126065222.649 6  98232631.96546  23989415.180    23989412.400          41.400
        37.250
 114831978.048 8  89479442.43246  21851799.440    21851793.980          49.450
        41.800
 117738249.336 7  91744072.61446  22404843.260    22404838.720          47.900
        39.900
 121162403.016 7  94412262.12546  23056438.200    23056436.880          45.450
        40.250
 106126225.478 8  82695736.41447  20195148.820    20195142.820          49.600
        46.300
 112825772.367 8  87916175.58147  21470031.900    21470029.580          49.000
        43.700
 125491144.548 6  97604244.176 6  23442800.200    23442804.620          41.850
        40.150
 121476582.878 6                  22764659.920                          39.250

 116403208.373 7  90535832.712 7  21752722.340    21752723.920          44.700
        42.750
 108033459.254 7                  20224091.040                          46.550

 122524528.548 6  95296881.622 5  22985289.680    22985296.200          39.800
        33.050
 104895547.187 8  81585433.828 7  19629771.820    19629773.960          49.350
        45.850
 110685807.754 8  86088969.313 7  20735181.760    20735184.300          48.000
        45.550
 19  2 28 13  4 39.0000000  0 14G29G12G31G20G26G21G25R07R06R21R12R10
                                R11R22
 115436388.320 8  89950405.53246  21966813.800    21966809.160          49.050
        41.500
 126068256.412 6  98234995.94746  23989992.480    23989989.740          40.800
        38.800
 114832649.079 8  89479965.31446  21851927.120    21851921.660          49.450
        41.250
 117735131.615 7  91741643.22346  22404249.980    22404245.440          47.900
        39.650
 121159229.455 7  94409789.22346  23055834.320    23055832.980          45.300
        40.900
 106125377.418 8  82695075.58847  20194987.440    20194981.440          49.550
        46.500
 112827646.678 8  87917636.08347  21470388.560    21470386.260          48.950
        43.900
 125487913.462 7  97601731.111 6  23442196.600    23442201.000          42.300
        40.050
 121475092.904 6                  22764380.660                          39.000

 116405425.550 7  90537557.185 7  21753136.680    21753138.260          44.800
        42.850
 108031670.612 7                  20223756.200                          46.550

 122528868.882 6  95300257.437 5  22986103.940    22986110.440          39.300
        32.800
 104897398.973 8  81586874.106 7  19630118.360    19630120.500          49.300
        45.900
 110685851.310 7  86089003.190 7  20735189.920    20735192.460          47.950
        45.600
 19  2 28 13  4 40.0000000  0 14G29G12G31G20G26G21G25R07R06R21R12R10
                                R11R22
 115437476.551 8  89951253.50046  21967020.880    21967016.240          49.150
        41.650
 126071290.565 7  98237360.21346  23990569.860    23990567.160          42.550
        36.350
 114833320.873 8  89480488.79346  21852054.960    21852049.500          49.700
        41.400
 117732014.242 7  91739214.10346  22403656.760    22403652.220          47.950
        40.250
 121156056.197 7  94407316.56246  23055230.480    23055229.120          45.300
        41.300
 106124530.073 8  82694415.32147  20194826.200    20194820.200          49.600
        46.650
 112829521.661 8  87919097.10747  21470745.360    21470743.060          48.900
        43.700
 125484682.542 7  97599218.179 6  23441593.040    23441597.440          42.000
        40.000
 121473603.664 6                  22764101.560                          38.700

 116407642.842 7  90539281.743 7  21753551.040    21753552.600          44.700
        42.950
 108029882.956 7                  20223421.540                          46.600

 122533209.572 6  95303633.529 5  22986918.240    22986924.740          40.100
        32.550
 104899251.732 8  81588315.140 7  19630465.100    19630467.220          49.350
        45.800
 110685895.272 8  86089037.382 7  20735198.160    20735200.700          48.000
        45.550
 19  2 28 13  4 41.0000000  0 14G29G12G31G20G26G21G25R07R06R21R12R10
                                R11R22
 115438564.995 8  89952101.63646  21967228.020    21967223.380          49.100
        41.700
 126074325.164 7  98239724.83846  23991147.320    23991144.640          42.950
        37.500
 114833993.436 8  89481012.86447  21852182.960    21852177.480          49.650
        42.050
 117728897.223 8  91736785.25746  22403063.620    22403059.080          48.050
        40.550
 121152883.220 7  94404844.11246  23054626.700    23054625.360          45.450
        40.750
 106123683.426 8  82693755.59447  20194665.080    20194659.100          49.600
        46.550
 112831397.294 8  87920558.63247  21471102.280    21471099.980          48.850
        43.700
 125481451.801 6  97596705.385 6  23440989.460    23440993.940          41.950
        40.150
 121472115.165 6                  22763822.600                          39.700

 116409860.257 7  90541006.395 7  21753965.440    21753966.980          44.700
        42.850
 108028096.277 7                  20223087.080                          46.550

 122537550.561 6  95307009.850 5  22987732.580    22987739.100          39.900
        31.750
 104901105.452 8  81589756.923 7  19630811.980    19630814.120          49.300
        45.600
 110685939.647 7  86089071.896 7  20735206.460    20735209.020          47.900
        45.700
 19  2 28 13  4 42.0000000  0 14G29G12G31G20G26G21G25R07R06R21R12R10
                                R11R22
 115439653.647 8  89952949.93046  21967435.180    21967430.540          49.050
        41.550
 126077360.165 7  98242089.77846  23991724.860    23991722.200          44.650
        36.300
 114834666.756 8  89481537.52746  21852311.080    21852305.620          49.650
        41.800
 117725780.545 7  91734356.67746  22402470.520    22402466.000          47.700
        40.350
 121149710.553 7  94402371.90046  23054022.980    23054021.620          45.450
        41.100
 106122837.483 8  82693096.42047  20194504.120    20194498.120          49.550
        46.700
 112833273.586 8  87922020.67447  21471459.320    21471457.040          48.850
        43.900
 125478221.184 6  97594192.687 6  23440385.940    23440390.460          41.800
        37.150
 121470627.427 6                  22763543.780                          39.500

 116412077.774 7  90542731.126 7  21754379.860    21754381.360          44.650
        42.900
 108026310.565 7                  20222752.780                          46.450

 122541891.923 6  95310386.449 5  22988547.020    22988553.520          40.050
        33.050
