     2.11           OBSERVATION DATA    M (MIXED)           RINEX VERSION / TYPE
teqc  2012Jun6                          20190301 21:13:39UTCPGM / RUN BY / DATE
MSXP|IAx86-PII|bcc32 5.0|MSWin95->XP|486/DX+                COMMENT
BIT 2 OF LLI FLAGS DATA COLLECTED UNDER A/S CONDITION       COMMENT
-Unknown-                                                   MARKER NAME
-Unknown-           -Unknown-                               OBSERVER / AGENCY
1533847             LEICA               4.51/6.112          REC # / TYPE / VERS
                    LEIAS10         NONE                    ANT # / TYPE
  2346250.5913 -5239529.4363 -2773557.8101                  APPROX POSITION XYZ
        0.5990        0.0000        0.0000                  ANTENNA: DELTA H/E/N
     1     1                                                WAVELENGTH FACT L1/2
     6    L1    L2    C1    P2    S1    S2                  # / TYPES OF OBSERV
     2.0000                                                 INTERVAL
P08X                                                        COMMENT
Project creator:                                            COMMENT
 SNR is mapped to RINEX snr flag value [0-9]                COMMENT
  L1 & L2: min(max(int(snr_dBHz/6), 0), 9)                  COMMENT
  2019     2    28    14    32   48.0000000     GPS         TIME OF FIRST OBS
    16                                                      LEAP SECONDS
                                                            END OF HEADER
 19  2 28 14 32 48.0000000  0 20G29G20G27G25G15G21G31G16G10G26R22R13
                                R07R21R23R06R12R08R11E01
 122349460.802 7  95337233.73846  23282330.300    23282326.140          47.150
        39.100
 106395109.324 8  82905257.38347  20246315.860    20246309.860          48.750
        46.000
 129310767.356 6 100761642.47044  24607020.960    24607018.180          38.550
        27.550


 132949029.721 7 103596636.11845  25299359.260    25299357.740          44.250
        33.600
 108381873.789 8  84453382.50747  20624385.260    20624378.960          49.750
        43.550
 124568336.329 7  97066216.51346  23704569.540    23704564.980          46.900
        39.200
 118581125.548 7  92400854.49246  22565237.900    22565231.880          46.100
        38.150
 112669688.039 8  87794554.25247  21440327.060    21440324.700          49.000
        45.100
 108707458.668 8  84707101.39647  20686340.700    20686338.440          49.750
        46.750
 112618594.637 7  87592258.149 6  21097258.900    21097261.600          45.100
        41.250
 116798717.620 6  90843461.192 5  21872649.220    21872651.860          37.600
        34.650
 112391061.048 7  87415279.642 7  20995593.680    20995595.640          46.450
        44.700
 126898705.654 6  98699014.509 6  23714058.760    23714063.220          40.650
        40.700
 118743499.804 6  92356062.143 5  22197843.260    22197848.560          41.900
        34.350
 123344933.634 6                  23114787.760                          39.700

 110733360.945 7                  20729518.040                          46.600

 117664567.356 7  91516905.640 6  21973027.560    21973029.960          42.650
        38.850
 122702748.465 6  95435482.200 6  22962146.580    22962151.340          40.550
        39.750
 128056712.770 8                  24368381.820                          51.150

 19  2 28 14 32 50.0000000  0 20G29G20G27G25G15G21G31G16G10G26R22R13
                                R07R21R23R06R12R08R11E01
 122352755.231 7  95339800.82046  23282957.200    23282953.080          47.950
        37.150
 106393555.439 8  82904046.56347  20246020.180    20246014.140          49.050
        45.250
 129305844.289 6 100757806.35844  24606084.220    24606081.740          39.100
        29.900


 132947797.938 7 103595676.27945  25299124.860    25299123.340          44.250
        32.050
 108384805.549 8  84455666.99446  20624943.160    20624936.840          49.050
        41.300
 124573345.595 7  97070119.82545  23705522.780    23705518.160          45.900
        35.350
 118575091.293 7  92396152.48346  22564089.620    22564083.680          45.850
        37.250
 112664048.372 8  87790159.71147  21439253.860    21439251.500          49.350
        44.800
 108705257.326 8  84705386.06247  20685921.800    20685919.540          50.000
        45.300
 112619545.336 7  87592997.575 6  21097436.960    21097439.720          44.850
        41.700
 116795580.806 6  90841021.442 5  21872061.760    21872064.500          38.500
        34.200
 112389070.851 7  87413731.709 7  20995221.900    20995223.860          46.750
        45.700
 126902207.556 6  98701738.216 6  23714713.100    23714717.760          40.400
        41.600
 118741073.786 7  92354175.240 5  22197389.720    22197395.080          42.650
        33.100
 123349516.457 6                  23115646.460                          38.350

 110738606.196 7                  20730499.940                          46.950

 117657130.893 6  91511121.750 6  21971638.880    21971641.260          40.250
        38.600
                                  22963704.520                          41.300

 128057302.453 8                  24368494.060                          51.400

 19  2 28 14 32 52.0000000  0 20G29G20G27G25G15G21G31G16G10G26R22R13
                                R07R21R23R06R12R08R11E01
 122356049.487 7  95342367.79546  23283584.060    23283579.980          46.700
        39.750
 106392003.109 7  82902836.95047  20245724.780    20245718.740          47.700
        47.000
 129300919.989 6 100753969.31845  24605147.140    24605145.160          38.000
        35.350


 132946566.431 7 103594716.67446  25298890.500    25298888.960          44.250
        36.850
 108387737.510 8  84457951.62847  20625501.080    20625494.760          48.050
        43.600
 124578354.432 6  97074022.82146  23706475.960    23706471.320          39.750
        37.750
 118569057.414 7  92391450.76346  22562941.400    22562935.480          45.450
        39.850
 112658409.459 7  87785765.75247  21438180.820    21438178.440          47.950
        45.700
 108703057.523 8  84703671.93947  20685503.180    20685500.920          49.100
        47.600
 112620495.106 7  87593736.277 7  21097614.860    21097617.640          46.050
        42.000
 116792446.251 6  90838583.504 5  21871474.760    21871477.580          37.950
        34.550
 112387083.015 7  87412185.621 7  20994850.560    20994852.520          47.000
        45.300
 126905708.299 6  98704461.029 6  23715367.220    23715372.020          39.650
        40.700
 118738646.826 7  92352287.630 5  22196936.040    22196941.440          43.050
        31.550
 123354100.966 5                  23116505.340                          35.250

 110743852.938 7                  20731482.160                          47.600

 117649694.358 7  91505337.753 6  21970250.160    21970252.540          42.350
        37.600
                                  22965262.360    22965267.000          44.200
        41.950
 128057893.093 8                  24368606.460                          50.800

 19  2 28 14 32 54.0000000  0 20G29G20G27G25G15G21G31G16G10G26R22R13
                                R07R21R23R06R12R08R11E01
 122359344.376 7  95344935.25146  23284211.060    23284206.980          46.850
        38.000
 106390453.241 8  82901629.26347  20245429.840    20245423.820          48.250
        46.850
 129295995.039 6 100750131.63245  24604209.880    24604208.120          36.400
        32.350


 132945336.248 7 103593758.12646  25298656.380    25298654.920          43.350
        36.900
 108390670.542 8  84460237.10647  20626059.220    20626052.880          49.000
        44.950
 124583363.045 7  97077925.65945  23707429.100    23707424.380          42.700
        33.400
 118563024.764 7  92386750.00046  22561793.440    22561787.520          46.050
        38.300
 112652772.164 8  87781373.05547  21437108.080    21437105.700          48.400
        45.800
 108700860.127 8  84701959.69147  20685085.040    20685082.780          49.400
        46.850
 112621444.698 7  87594474.842 7  21097792.760    21097795.540          47.850
        44.400
 116789314.774 6  90836147.897 5  21870888.380    21870891.180          36.950
        35.750
 112385098.179 7  87410641.864 7  20994479.760    20994481.720          47.350
        44.450
 126909208.683 6  98707183.529 6  23716021.380    23716026.060          40.250
        39.150
 118736219.984 6  92350400.101 5  22196482.340    22196487.840          41.700
        32.750
 123358687.953 5                  23117364.560                          31.050

 110749102.096 7                  20732464.820                          46.100

 117642258.602 7  91499554.358 6  21968861.600    21968863.960          42.800
        40.000
 122727723.033 7                  22966820.180    22966824.700          44.550
        33.750
 128058485.611 8                  24368719.240                          51.050

 19  2 28 14 32 56.0000000  0 20G29G20G27G25G15G21G31G16G10G26R22R13
                                R07R21R23R06R12R08R11E01
 122362640.416 7  95347503.57146  23284838.280    23284834.200          47.450
        37.600
 106388906.272 8  82900423.83447  20245135.460    20245129.440          48.500
        46.800
 129291070.148 6 100746294.10944  24603272.620    24603270.920          36.850
        28.050


 132944107.686 7 103592800.82046  25298422.560    25298421.120          44.200
        36.350
 108393605.143 8  84462523.81647  20626617.660    20626611.320          49.250
        44.400
 124588372.300 7  97081829.01145  23708382.380    23708377.640          43.650
        33.450
 118556993.831 7  92382050.56946  22560645.800    22560639.800          46.250
        37.700
 112647136.940 8  87776981.97147  21436035.740    21436033.360          48.550
        44.950
 108698665.604 8  84700249.67247  20684667.440    20684665.160          49.400
        46.600
 112622394.783 7  87595213.787 7  21097970.740    21097973.540          47.750
        44.600
 116786186.888 6  90833715.097 5  21870302.640    21870305.440          37.100
        35.150
 112383116.933 7  87409100.907 7  20994109.680    20994111.580          46.800
        44.850
 126912709.423 6  98709906.354 6  23716675.520    23716680.320          41.050
        40.600
 118733793.541 7  92348512.840 5  22196028.720    22196034.340          42.400
        34.000
 123363278.220 5                  23118224.580                          33.750

 110754354.145 7                  20733448.040                          45.800

 117634824.198 7  91493772.025 6  21967473.280    21967475.640          42.050
        39.950
 122736048.088 7  95461389.912 6  22968378.160    22968382.660          44.050
        38.100
 128059080.442 8                  24368832.420                          51.150

 19  2 28 14 32 58.0000000  0 20G29G20G27G25G15G21G31G16G10G26R22R13
                                R07R21R23R06R12R08R11E01
 122365937.640 7  95350072.82046  23285465.720    23285461.620          47.450
        37.950
 106387362.256 8  82899220.69847  20244841.640    20244835.620          48.650
        46.450
 129286145.189 6 100742456.50144  24602335.420    24602334.220          38.100
        26.850


 132942880.932 7 103591844.92846  25298189.120    25298187.700          43.350
        36.600
 108396541.373 8  84464811.78547  20627176.400    20627170.080          49.100
        44.650
 124593382.304 7  97085732.90245  23709335.780    23709330.940          44.800
        32.050
 118550964.702 7  92377352.54946  22559498.520    22559492.540          46.750
        38.300
 112641503.907 8  87772592.60147  21434963.820    21434961.420          48.350
        45.150
 108696474.038 8  84698541.95947  20684250.400    20684248.120          49.550
        46.750
 112623345.384 7  87595953.139 7  21098148.800    21098151.640          47.650
        44.550
 116783062.583 5  90831285.086 5  21869717.640    21869720.340          35.950
        34.500
 112381139.409 7  87407562.820 7  20993740.240    20993742.140          46.750
        44.400
 126916210.394 6  98712629.317 6  23717329.740    23717334.640          41.850
        40.850
 118731367.750 6  92346626.097 5  22195575.280    22195580.900          40.900
        32.850
 123367871.547 5                  23119085.520                          31.900

 110759609.153 7                  20734431.780                          45.650

 117627391.248 7  91487990.840 6  21966085.260    21966087.580          42.250
        40.300
 122744373.728 7                  22969936.180    22969939.220          44.800
        37.900
 128059677.666 8                  24368946.100                          51.150

 19  2 28 14 33  0.0000000  0 20G29G20G27G25G15G21G31G16G10G26R22R13
                                R07R21R23R06R12R08R11E01
 122369235.328 7  95352642.42446  23286093.240    23286089.140          47.800
        38.900
 106385820.460 8  82898019.30347  20244548.240    20244542.220          48.600
        46.850
 129281219.568 6 100738618.36945  24601398.020    24601396.940          38.050
        32.100
 128515711.247 6 100142115.41245  24455726.900    24455727.220          38.300
        33.850
 132941655.201 7 103590889.77446  25297955.880    25297954.500          46.050
        36.750
 108399478.481 8  84467100.43747  20627735.300    20627729.000          49.650
        44.100
 124598392.260 7  97089636.70745  23710289.180    23710284.240          45.250
        35.700
 118544936.562 7  92372655.29646  22558351.400    22558345.420          46.750
        39.850
 112635872.254 8  87768204.30447  21433892.140    21433889.760          48.750
        45.600
 108694284.665 8  84696835.94147  20683833.780    20683831.480          49.800
        46.850
 112624295.765 7  87596692.316 7  21098326.820    21098329.680          47.900
        45.550
 116779941.191 6  90828857.342 5  21869133.080    21869135.800          37.050
        34.000
 112379164.886 7  87406027.066 7  20993371.400    20993373.260          46.800
        45.000
 126919710.917 6  98715351.925 6  23717983.920    23717988.760          38.100
        37.000
 118728941.743 6  92344739.209 5  22195121.780    22195127.380          39.900
        31.250
 123372467.300 5                  23119947.500                          34.750

 110764866.319 7                  20735415.940                          45.500

 117619959.024 6  91482210.258 6  21964697.340    21964699.700          41.800
        39.650
 122752699.275 7                  22971494.200    22971499.040          45.700
        38.600
 128060276.512 8                  24369060.060                          51.450

 19  2 28 14 33  2.0000000  0 19G29G20G27G25G15G21G31G16G10G26R22R13
                                R07R21R23R12R08R11E01
 122372532.174 7  95355211.38946  23286720.620    23286716.540          47.550
        38.950
 106384279.586 8  82896818.62247  20244255.020    20244249.000          48.600
        46.300
 129276291.969 5 100734778.66745  24600460.300    24600459.040          34.150
        30.350
 128523123.033 6 100147890.78945  24457137.220    24457137.860          37.000
        30.950
 132940429.167 7 103589934.38246  25297722.580    25297721.120          44.550
        36.350
 108402415.163 8  84469388.75647  20628294.140    20628287.820          49.250
        44.400
 124603400.816 7  97093539.47445  23711242.320    23711237.300          43.900
        34.250
 118538908.269 7  92367957.92945  22557204.260    22557198.300          43.000
        35.800
 112630240.724 8  87763816.09347  21432820.500    21432818.100          48.750
        44.950
 108692096.176 8  84695130.62347  20683417.320    20683415.020          49.750
        47.550
 112625244.452 7  87597430.186 7  21098504.540    21098507.400          46.650
        43.550
 116776821.483 6  90826430.907 5  21868548.860    21868551.560          37.000
        35.950
 112377191.878 7  87404492.514 7  20993002.840    20993004.660          45.300
        44.900
 126923209.675 6  98718073.196 6  23718637.700    23718642.580          37.900
        40.500
 118726514.232 6  92342851.162 5  22194668.000    22194673.560          40.300
        33.000
 110770124.281 7                  20736400.260                          46.100

 117612526.028 6  91476429.046 6  21963309.260    21963311.640          41.050
        38.950
 122761023.242 7  95480807.981 6  22973051.920    22973056.880          44.700
        38.400
 128060875.733 8                  24369174.100                          51.350

 19  2 28 14 33  4.0000000  0 20G29G20G27G25G15G21G31G16G10G26R22R13
                                R07R21R23R06R12R08R11E01
 122375829.940 7  95357781.06146  23287348.160    23287344.100          46.400
        37.400
 106382741.443 8  82895620.06747  20243962.320    20243956.320          48.300
        46.800
 129271364.206 5                  24599522.420                          31.700

 128530535.563 6 100153666.83545  24458547.600    24458546.680          37.900
        33.050
 132939204.554 6 103588980.12245  25297489.500    25297488.260          40.800
        33.050
 108405353.211 8  84471678.15747  20628853.220    20628846.920          49.400
        44.600
 124608409.808 7  97097442.58646  23712195.540    23712190.500          45.000
        36.200
 118532881.397 6  92363261.68445  22556057.340    22556051.320          41.600
        31.100
 112624611.123 8  87759429.39347  21431749.240    21431746.840          48.650
        45.750
 108689910.405 8  84693427.42547  20683001.400    20682999.100          49.650
        46.750
 112626193.424 7  87598168.296 7  21098682.320    21098685.200          47.250
        44.700
 116773705.030 6  90824006.995 5  21867965.240    21867967.980          36.450
        35.000
 112375222.140 7  87402960.486 7  20992634.860    20992636.680          46.700
        44.550
 126926708.625 5  98720794.581 5  23719291.540    23719296.540          31.350
        35.400
 118724087.072 6  92340963.385 5  22194214.260    22194219.840          39.650
        32.350
                                  23121670.200                          37.800

 110775384.895 7                  20737385.060                          46.300

 117605094.240 6  91470648.764 6  21961921.400    21961923.800          39.250
        38.750
 122769347.541 7  95487282.408 6  22974609.720    22974614.560          45.400
        40.750
 128061477.067 8                  24369288.540                          51.650

 19  2 28 14 33  6.0000000  0 20G29G20G27G25G15G21G31G16G10G26R22R13
                                R07R21R23R06R12R08R11E01
 122379129.261 6  95360351.95445  23287976.000    23287972.040          39.700
        33.850
 106381206.494 8  82894424.00947  20243670.240    20243664.220          48.600
        47.050
 129266436.413 7                  24598584.560                          43.900

 128537949.186 6 100159443.70845  24459958.160    24459957.980          37.700
        34.300
 132937982.375 6 103588027.81744  25297256.860    25297255.800          36.000
        29.650
 108408293.138 8  84473969.00547  20629412.680    20629406.360          50.050
        44.100
 124613419.715 7  97101346.39545  23713148.960    23713143.880          45.050
        34.300
 118526856.557 7  92358567.01446  22554910.820    22554904.960          45.750
        37.000
 112618983.891 8  87755044.55447  21430678.400    21430676.020          48.700
        46.050
 108687727.836 8  84691726.71447  20682586.060    20682583.760          50.050
        46.950
 112627143.096 8  87598906.928 7  21098860.200    21098863.100          48.800
        44.500
 116770592.326 6  90821585.993 6  21867382.300    21867385.040          40.050
        38.550
 112373256.536 7  87401431.684 7  20992267.680    20992269.480          44.050
        42.250
 126930207.985 4  98723516.297 5  23719945.420    23719950.440          29.200
        33.650
 118721660.436 7  92339076.005 6  22193760.620    22193766.240          45.350
        37.700
                                  23122533.060                          37.800

 110780648.725 7                  20738370.460                          45.850

 117597664.133 6  91464869.782 6  21960533.860    21960536.260          40.650
        40.750
 122777672.673 7  95493757.492 6  22976167.680    22976172.360          45.650
        40.100
 128062081.007 8                  24369403.480                          51.750

 19  2 28 14 33  8.0000000  0 19G29G20G27G25G15G21G31G16G10G26R22R13
                                R07R23R06R12R08R11E01
 122382430.004 6  95362923.86644  23288604.120    23288600.080          41.950
        28.800
 106379675.198 8  82893230.81247  20243378.840    20243372.820          48.650
        45.950
 129261509.533 7 100723241.90346  24597646.960    24597645.660          43.100
        38.600
 128545364.669 6 100165221.94745  24461369.300    24461370.300          37.800
        32.300
 132936761.535 5 103587076.61644  25297024.480    25297023.300          35.750
        26.750
 108411235.369 8  84476261.64247  20629972.560    20629966.240          49.950
        44.400
 124618430.946 7  97105251.25045  23714102.600    23714097.520          44.800
        35.050
 118520834.216 7  92353874.27446  22553764.800    22553758.940          47.000
        39.050
 112613359.516 8  87750661.92647  21429608.120    21429605.740          48.700
        45.250
 108685548.877 8  84690028.82847  20682171.420    20682169.120          49.750
        46.450
 112628094.070 8  87599646.568 7  21099038.360    21099041.240          48.650
        45.800
 116767484.150 6  90819168.523 6  21866800.240    21866802.960          41.000
        38.700
 112371295.320 6  87399906.328 6  20991901.300    20991903.080          36.800
        37.650
 118719235.223 7  92337189.683 6  22193307.300    22193312.800          45.400
        36.250
 123390869.031 5                  23123396.500                          32.700

 110785916.193 7                  20739356.560                          45.750

 117590236.222 7  91459092.499 7  21959146.720    21959149.140          42.350
        42.250
 122785998.978 7  95500233.514 6  22977725.860    22977730.440          43.250
        40.050
 128062688.042 8                  24369519.020                          51.600

 19  2 28 14 33 10.0000000  0 19G29G20G27G25G15G21G31G16G10G26R22R13
                                R07R23R06R12R08R11E01
 122385732.279 6                  23289232.440                          38.500

 106378146.702 8  82892039.77847  20243087.980    20243081.960          48.550
        45.950
 129256582.459 7 100719402.64146  24596709.340    24596707.740          43.150
        38.200
 128552780.964 5 100171000.87445  24462780.560    24462781.660          35.700
        33.800
                                  25296793.940    25296803.960          37.500
        29.700
 108414179.048 8  84478555.41847  20630532.720    20630526.400          49.550
        43.650
 124623442.654 7  97109156.48445  23715056.300    23715051.180          44.050
        32.100
 118514813.485 7  92349182.79946  22552619.080    22552613.180          47.050
        39.000
 112607737.127 8  87746280.85447  21428538.220    21428535.820          49.200
        45.000
 108683372.675 8  84688333.09247  20681757.300    20681755.000          49.800
        46.800
 112629045.295 7  87600386.385 7  21099216.580    21099219.420          46.700
        45.400
 116764379.408 6  90816753.721 6  21866218.820    21866221.580          41.350
        39.600
 112369337.402 6  87398383.484 6  20991535.560    20991537.340          40.250
        38.300
 118716810.446 7  92335303.743 5  22192853.980    22192859.460          44.700
        35.750
 123395478.884 5                  23124260.580                          34.100

 110791186.465 7                  20740343.200                          46.300

 117582809.428 7  91453316.132 6  21957759.820    21957762.240          43.000
        41.300
 122794325.764 7  95506709.986 6  22979284.100    22979288.380          44.200
        40.350
 128063297.285 8                  24369634.960                          51.500

 19  2 28 14 33 12.0000000  0 18G29G20G27G25G15G21G31G16G10G26R22R13
                                R07R23R12R08R11E01
 122389034.404 4                  23289860.840                          29.550

 106376620.088 8  82890850.20947  20242797.480    20242791.460          48.600
        45.800
 129251654.350 7 100715562.56046  24595771.520    24595769.400          42.600
        37.400
 128560197.164 6 100176779.70145  24464191.840    24464192.280          37.000
        31.050
                                  25296560.180                          33.650

 108417123.295 8  84480849.62647  20631092.980    20631086.680          50.150
        44.650
 124628453.980 7  97113061.41145  23716009.940    23716004.800          44.750
        34.750
 118508793.466 7  92344491.87646  22551473.520    22551467.600          46.700
        39.750
 112602115.821 8  87741900.62147  21427468.540    21427466.120          49.000
        45.250
 108681198.354 8  84686638.81847  20681343.540    20681341.240          49.850
        46.800
 112629995.893 7  87601125.753 7  21099394.660    21099397.500          47.150
        45.500
 116761277.226 6  90814340.917 6  21865637.840    21865640.680          40.500
        38.550
 112367382.094 7  87396862.664 6  20991170.300    20991172.080          42.050
        39.000
 118714385.091 7  92333417.366 6  22192400.620    22192406.020          45.300
        36.600
 110796458.521 7                  20741330.140                          46.700

 117575382.995 7  91447540.024 6  21956372.980    21956375.400          43.200
        41.700
 122802651.960 7  95513185.926 6  22980842.260    22980846.460          42.150
        39.250
 128063907.825 8                  24369751.140                          51.650

 19  2 28 14 33 14.0000000  0 18G29G20G27G25G15G21G31G16G10G26R22R13
                                R07R23R12R08R11E01
 122392339.327 6                  23290489.780                          36.000

 106375097.931 8  82889664.11047  20242507.820    20242501.800          48.900
        45.750
 129246727.751 7 100711723.66146  24594834.000    24594832.280          43.100
        36.700
 128567615.871 6 100182560.52646  24465603.740    24465604.340          37.000
        36.600
 132933116.133 6                  25296329.160                          36.350

 108420070.610 8  84483146.23047  20631653.840    20631647.520          50.200
        44.700
 124633467.454 7  97116967.97845  23716963.960    23716958.880          44.550
        34.600
 118502776.731 7  92339803.50746  22550328.580    22550322.620          47.250
        38.250
 112596498.159 8  87737523.21647  21426399.540    21426397.120          49.250
        45.100
 108679028.472 8  84684947.99447  20680930.640    20680928.320          50.050
        46.800
 112630948.514 8  87601866.689 7  21099573.100    21099575.960          48.100
        45.650
 116758180.165 6  90811932.098 6  21865057.820    21865060.720          40.800
        38.500
 112365432.059 6  87395345.978 6  20990806.040    20990807.800          41.500
        40.700
 118711961.793 7  92331532.589 6  22191947.640    22191953.000          45.150
        37.400
 110801735.019 7                  20742317.920                          46.650

 117567959.550 7  91441766.231 6  21954986.700    21954989.120          43.600
        41.950
 122810980.184 7  95519663.438 6  22982400.840    22982404.960          42.600
        38.550
 128064522.234 8                  24369868.060                          51.650

 19  2 28 14 33 16.0000000  0 18G29G20G27G25G15G21G31G16G10G26R22R13
                                R07R23R12R08R11E01
 122395644.385 6                  23291118.720                          38.800

 106373577.578 8  82888479.42047  20242218.500    20242212.480          48.850
        45.850
 129241800.021 7 100707883.87846  24593896.220    24593895.500          43.250
        38.650
 128575034.431 6 100188341.21645  24467015.380    24467016.360          38.500
        31.350
 132931902.146 5                  25296098.920                          35.350

 108423018.404 8  84485443.21447  20632214.780    20632208.480          50.200
        44.200
 124638480.414 7  97120874.16645  23717917.880    23717912.840          44.050
        35.550
 118496760.609 7  92335115.62446  22549183.740    22549177.800          47.050
        37.800
 112590881.499 8  87733146.59647  21425330.720    21425328.280          49.100
        44.950
 108676860.359 8  84683258.55047  20680518.060    20680515.760          49.900
        46.100
 112631900.412 7  87602607.041 7  21099751.420    21099754.300          47.900
        45.900
 116755085.566 6  90809525.198 6  21864478.360    21864481.200          40.750
        39.050
 112363484.523 6  87393831.230 6  20990442.220    20990444.000          41.800
        39.700
 118709537.885 7  92329647.344 6  22191494.480    22191499.900          45.250
        36.550
 110807013.224 7                  20743306.000                          46.150

 117560536.359 7  91435992.636 7  21953600.460    21953602.900          43.650
        42.350
 122819307.937 7  95526140.586 6  22983959.280    22983963.500          42.350
        39.450
 128065137.874 8                  24369985.200                          51.650

 19  2 28 14 33 18.0000000  0 18G29G20G27G25G15G21G31G16G10G26R22R13
                                R07R23R12R08R11E01
 122398949.235 7                  23291747.620                          44.650

 106372058.836 8  82887295.96247  20241929.500    20241923.480          49.100
        46.800
 129236870.960 7 100704043.05246  24592958.220    24592956.660          44.500
        37.350
 128582452.657 6 100194121.64845  24468427.060    24468428.400          39.950
        34.850
 132930688.643 6 103582335.48645  25295867.200    25295865.660          40.200
        32.500
 108425966.461 8  84487740.40947  20632775.780    20632769.480          49.850
        44.250
 124643492.672 7  97124779.82146  23718871.640    23718866.680          43.650
        36.650
 118490744.915 7  92330428.06646  22548038.960    22548033.000          47.100
        37.550
 112585265.666 8  87728770.60747  21424262.080    21424259.620          49.700
        44.850
 108674693.853 8  84681570.36747  20680105.780    20680103.480          49.950
        46.650
 112632851.415 7  87603346.702 7  21099929.580    21099932.460          47.700
        45.850
 116751993.199 6  90807120.034 6  21863899.260    21863902.120          41.400
        38.300
 112361539.153 6  87392318.158 6  20990078.840    20990080.560          38.600
        38.350
 118707113.148 7  92327761.427 6  22191041.200    22191046.640          44.700
        37.500
 110812292.970 7                  20744294.360                          46.250

 117553113.168 7  91430219.058 6  21952214.240    21952216.680          44.250
        41.900
 122827634.833 7  95532617.039 6  22985517.580    22985521.840          45.150
        37.800
 128065754.537 8                  24370102.540                          51.650

 19  2 28 14 33 20.0000000  0 18G29G20G27G25G15G21G31G16G10G26R22R13
                                R07R23R12R08R11E01
 122402254.216 7  95378379.49355  23292376.540    23292374.600          44.750
        31.850
 106370541.986 8  82886113.99647  20241640.860    20241634.820          49.100
        47.100
 129231940.838 7 100700201.40146  24592020.040    24592018.240          44.050
        37.400
 128589870.838 6 100199901.99845  24469838.720    24469839.700          40.650
        33.850
 132929475.710 7 103581390.32945  25295636.740    25295637.300          42.050
        32.100
 108428915.050 8  84490038.00147  20633336.880    20633330.560          49.650
        44.650
 124648504.526 7  97128685.16646  23719825.340    23719820.440          44.300
        36.700
 118484729.941 7  92325741.06546  22546894.340    22546888.400          47.250
        38.100
 112579650.860 8  87724395.42047  21423193.620    21423191.140          49.850
        44.000
 108672529.209 8  84679883.63647  20679693.860    20679691.580          50.050
        46.400
 112633801.861 8  87604085.958 7  21100107.640    21100110.520          48.100
        44.900
 116748903.366 6  90804716.820 6  21863320.600    21863323.480          41.400
        38.350
 112359596.334 7  87390807.066 6  20989715.940    20989717.620          44.000
        40.150
 118704687.884 7  92325875.121 6  22190587.800    22190593.280          45.100
        36.950
 110817574.567 7                  20745283.100                          46.200

 117545690.186 7  91424445.636 6  21950828.080    21950830.500          43.000
        41.250
 122835961.074 7  95539092.961 6  22987075.760    22987080.180          44.850
        41.250
 128066372.492 8                  24370220.140                          51.750

 19  2 28 14 33 22.0000000  0 17G29G20G27G15G21G31G16G10G26R22R13R07
                                R23R12R08R11E01
 122405559.717 7  95380955.10246  23293005.560    23293002.260          47.050
        36.550
 106369027.461 8  82884933.84347  20241352.660    20241346.620          49.150
        46.900
 129227010.086 7 100696359.27446  24591081.720    24591080.020          44.050
        39.100
 132928263.896 6 103580446.06245  25295406.020    25295404.280          41.300
        35.700
 108431864.599 8  84492336.35347  20633898.140    20633891.860          49.800
        43.800
 124653516.342 7  97132590.45146  23720779.040    23720774.160          45.800
        36.300
 118478716.107 7  92321054.97546  22545749.940    22545743.940          47.000
        38.750
 112574037.591 8  87720021.46947  21422125.480    21422122.980          49.050
        44.850
 108670366.844 8  84678198.67647  20679282.360    20679280.100          49.850
        46.400
 112634752.096 8  87604825.011 7  21100285.660    21100288.520          48.200
        45.050
 116745816.539 6  90802315.957 6  21862742.480    21862745.420          41.550
        39.050
 112357656.659 7  87389298.407 6  20989353.600    20989355.260          43.400
        41.350
 118702262.516 7  92323988.736 6  22190134.420    22190139.840          44.600
        36.550
 110822858.434 7                  20746272.260                          46.450

 117538267.978 7  91418672.843 7  21949442.060    21949444.460          46.100
        43.250
 122844287.326 7  95545568.880 6  22988633.940    22988638.620          44.950
        40.900
 128066992.187 8                  24370338.060                          51.750

 19  2 28 14 33 24.0000000  0 18G29G20G27G25G15G21G31G16G10G26R22R13
                                R07R23R12R08R11E01
 122408867.384 7  95383532.46145  23293635.020    23293631.360          45.300
        34.950
 106367516.875 8  82883756.74447  20241065.180    20241059.140          49.000
        46.550
 129222080.332 7 100692517.91046  24590143.580    24590141.620          44.250
        36.950
                                  24472661.460    24472664.780          40.100
        33.200
 132927054.867 6 103579503.95245  25295175.880    25295175.460          40.850
        32.350
 108434816.779 8  84494636.77347  20634459.940    20634453.640          49.900
        44.400
 124658529.785 7  97136497.00145  23721733.040    23721728.220          44.900
        35.600
 118472705.035 7  92316371.03546  22544606.060    22544600.040          46.850
        38.400
 112568427.489 8  87715649.96747  21421057.920    21421055.400          49.300
        45.100
 108668208.414 8  84676516.77847  20678871.620    20678869.360          49.950
        46.650
 112635703.804 7  87605565.229 7  21100463.940    21100466.800          47.600
        45.350
 116742734.374 6  90799918.713 6  21862165.300    21862168.220          41.200
        38.550
 112355721.709 6  87387793.452 6  20988992.120    20988993.820          41.650
        40.500
 118699838.718 7  92322103.554 6  22189681.280    22189686.700          44.850
        36.800
 110828146.222 7                  20747262.180                          46.650

 117530848.311 7  91412901.991 7  21948056.480    21948058.880          46.050
        43.050
 122852615.159 7  95552046.078 6  22990192.420    22990197.100          45.000
        39.100
 128067615.240 8                  24370456.640                          51.700

 19  2 28 14 33 26.0000000  0 18G29G20G27G25G15G21G31G16G10G26R22R13
                                R07R23R12R08R11E01
 122412174.777 7  95386109.64946  23294264.400    23294261.700          45.600
        36.350
 106366007.760 8  82882580.82547  20240778.020    20240771.980          48.800
        46.450
 129217149.109 7 100688675.41546  24589205.200    24589203.600          44.150
        37.150
 128612132.293 6 100217238.27946  24474073.100    24474075.760          37.950
        36.250
 132925846.065 6 103578562.00745  25294946.080    25294944.440          41.200
        32.950
 108437769.076 8  84496937.27247  20635021.740    20635015.440          49.800
        43.400
 124663542.427 7  97140402.94446  23722686.880    23722682.140          46.000
        36.950
 118466694.291 7  92311687.34546  22543462.260    22543456.240          47.000
        38.150
 112562818.046 8  87711278.96247  21419990.480    21419987.960          49.400
        45.600
 108666051.453 8  84674836.03647  20678461.160    20678458.920          49.700
        45.850
 112636654.447 7  87606304.634 7  21100642.020    21100644.880          47.550
        45.550
 116739654.369 6  90797523.160 6  21861588.480    21861591.460          41.050
        39.300
 112353788.792 7  87386290.077 7  20988631.040    20988632.760          43.450
        42.000
 118697413.967 7  92320217.631 6  22189228.000    22189233.380          44.800
        37.000
 110833435.399 7                  20748252.320                          46.350

 117523428.585 7  91407131.103 7  21946670.920    21946673.300          45.250
        43.700
 122860941.956 7  95558522.432 6  22991750.720    22991755.420          43.650
        39.250
 128068239.186 8                  24370575.380                          51.750

 19  2 28 14 33 28.0000000  0 18G29G20G27G25G15G21G31G16G10G26R22R13
                                R07R23R12R08R11E01
 122415483.142 7  95388687.60845  23294893.980    23294891.640          45.150
        35.400
 106364501.380 8  82881407.02547  20240491.360    20240485.320          48.900
        46.200
 129212217.723 7 100684832.76846  24588266.760    24588265.380          44.150
        39.050
 128619553.060 6 100223020.67946  24475485.300    24475486.940          39.750
        36.350
 132924638.841 7 103577621.34645  25294716.520    25294715.640          42.050
        31.750
 108440722.779 8  84499238.84947  20635583.800    20635577.500          50.000
        43.450
 124668555.555 7  97144309.25446  23723640.860    23723636.140          46.400
        40.950
 118460685.095 7  92307004.85846  22542318.720    22542312.780          47.000
        39.150
 112557210.550 8  87706909.48047  21418923.420    21418920.900          49.600
        45.300
 108663897.220 8  84673157.41047  20678051.220    20678048.960          49.850
        46.250
 112637605.405 8  87607044.275 7  21100820.180    21100823.040          48.100
        45.550
 116736577.800 6  90795130.275 6  21861012.280    21861015.320          41.400
        39.000
 112351859.404 7  87384789.456 6  20988270.620    20988272.360          44.250
        41.750
 118694989.468 7  92318331.922 5  22188774.760    22188780.100          45.050
        35.900
 110838727.313 7                  20749242.960                          46.350

 117516010.072 7  91401361.136 7  21945285.580    21945287.940          45.700
        43.850
 122869269.220 6  95564999.158 6  22993309.060    22993313.800          38.900
        38.400
 128068865.294 8                  24370694.520                          51.750

 19  2 28 14 33 30.0000000  0 18G29G20G27G25G15G21G31G16G10G26R22R13
                                R07R23R12R08R11E01
 122418792.448 7  95391266.29445  23295523.720    23295520.960          43.750
        34.550
 106362997.760 8  82880235.37047  20240205.220    20240199.180          48.950
        45.950
 129207286.101 7 100680989.94446  24587328.300    24587326.880          44.150
        38.900
 128626974.479 6 100228803.54545  24476898.400    24476900.220          38.600
        33.900
 132923433.126 6 103576681.82245  25294487.180    25294485.160          41.650
        35.400
 108443677.851 8  84501541.48047  20636146.140    20636139.820          49.950
        43.700
 124673569.024 7  97148215.82546  23724594.920    23724590.180          46.650
        39.200
 118454677.455 7  92302323.58646  22541175.500    22541169.620          46.650
        38.950
 112551604.970 8  87702541.48947  21417856.720    21417854.200          49.700
        45.200
 108661745.679 8  84671480.88347  20677641.800    20677639.540          49.950
        46.550
 112638556.630 8  87607784.116 7  21100998.360    21101001.240          48.600
        45.450
 116733504.622 6  90792740.022 6  21860436.800    21860439.820          41.400
        38.250
 112349933.417 7  87383291.458 6  20987910.840    20987912.580          43.250
        41.200
 118692565.317 7  92316446.487 6  22188321.580    22188326.900          45.400
        36.400
 110844021.907 7                  20750234.120                          46.400

 117508592.686 7  91395592.046 7  21943900.420    21943902.780          45.550
        43.350
 122877596.634 6  95571476.025 6  22994867.440    22994872.180          41.350
        39.700
 128069493.560 8                  24370814.080                          51.700

 19  2 28 14 33 32.0000000  0 18G29G20G27G25G15G21G31G16G10G26R22R13
                                R07R23R12R08R11E01
 122422101.699 6  95393844.92745  23296153.440    23296150.320          40.700
        35.100
 106361495.736 8  82879064.95947  20239919.380    20239913.360          48.700
        46.900
 129202353.144 7 100677146.08146  24586389.580    24586388.500          44.200
        38.250
 128634395.524 6 100234586.16546  24478310.180    24478311.780          41.100
        38.800
 132922227.886 6 103575742.68045  25294257.980    25294256.680          41.750
        32.950
 108446633.193 8  84503844.34247  20636708.520    20636702.200          50.150
        44.400
 124678581.805 7  97152121.86646  23725548.880    23725544.120          47.000
        39.300
 118448670.269 7  92297642.66646  22540032.380    22540026.460          47.450
        38.650
 112546000.214 8  87698174.13547  21416790.180    21416787.660          49.550
        44.550
 108659595.755 8  84669805.61847  20677232.680    20677230.420          50.100
        46.700
 112639506.971 8  87608523.269 7  21101176.380    21101179.280          48.150
        45.100
 116730433.714 7  90790351.533 6  21859861.720    21859864.720          42.000
        38.400
 112348009.735 7  87381795.250 7  20987551.460    20987553.220          43.950
        42.250
 118690140.401 7  92314560.439 6  22187868.260    22187873.560          44.900
        36.750
 110849318.039 7                  20751225.580                          46.700

 117501175.327 7  91389822.993 7  21942515.260    21942517.620          45.650
        44.700
 122885923.209 6  95577952.244 6  22996425.640    22996430.260          41.150
        39.850
 128070122.851 8                  24370933.840                          51.750

 19  2 28 14 33 34.0000000  0 18G29G20G27G25G15G21G31G16G10G26R22R13
                                R07R23R12R08R11E01
 122425411.286 6  95396423.80145  23296783.200    23296780.140          40.450
        33.600
 106359995.881 8  82877896.25047  20239633.980    20239627.940          48.650
        46.250
 129197419.459 7 100673301.68846  24585450.740    24585450.020          44.400
        38.050
 128641816.877 7 100240368.98546  24479722.780    24479723.300          43.550
        38.850
 132921023.537 6 103574804.23645  25294028.860    25294026.800          41.300
        33.950
 108449589.353 8  84506147.83147  20637271.060    20637264.740          49.800
        44.350
 124683594.457 7  97156027.81446  23726502.820    23726498.000          46.450
        37.150
 118442664.094 7  92292962.54246  22538889.440    22538883.520          47.300
        38.150
 112540396.854 8  87693807.87647  21415723.900    21415721.360          49.250
        44.750
 108657447.990 8  84668132.02947  20676823.980    20676821.720          49.900
        46.700
 112640456.963 7  87609262.156 7  21101354.340    21101357.240          47.400
        44.800
 116727365.654 6  90787965.264 6  21859287.200    21859290.180          41.750
        38.950
 112346088.973 7  87380301.320 7  20987192.640    20987194.420          45.750
        43.300
 118687715.222 7  92312674.206 5  22187414.900    22187420.200          45.650
        35.700
 110854616.219 7                  20752217.400                          46.400

 117493758.702 7  91384054.517 7  21941130.260    21941132.600          46.750
        44.700
 122894249.565 6  95584428.315 6  22997983.760    22997988.440          39.300
        41.150
 128070753.731 8                  24371053.920                          51.650

 19  2 28 14 33 36.0000000  0 18G29G20G27G25G15G21G31G16G10G26R22R13
                                R07R23R12R08R11E01
 122428721.210 7  95399002.94045  23297413.000    23297410.140          44.250
        35.500
 106358498.243 8  82876729.27847  20239348.980    20239342.960          48.650
        46.250
 129192484.984 7 100669456.66346  24584511.780    24584510.940          44.600
        38.150
 128649238.375 6 100246151.93345  24481135.200    24481135.120          40.750
        35.800
 132919820.255 7 103573866.59845  25293799.820    25293798.400          42.650
        32.900
 108452546.349 8  84508451.99147  20637833.780    20637827.440          50.100
        44.200
 124688606.968 7  97159933.68146  23727456.740    23727451.880          46.450
        38.700
 118436658.939 7  92288283.20746  22537746.680    22537740.780          47.200
        37.400
 112534794.891 8  87689442.72147  21414657.900    21414655.340          49.600
        44.600
 108655302.407 8  84666460.15447  20676415.680    20676413.420          50.150
        46.400
 112641406.702 8  87610000.856 7  21101532.260    21101535.160          48.150
        45.400
 116724300.454 6  90785581.222 6  21858713.180    21858716.140          41.850
        38.250
 112344171.181 7  87378809.717 7  20986834.400    20986836.180          44.350
        42.400
 118685289.795 7  92310787.763 6  22186961.480    22186966.800          44.550
        36.300
 110859916.542 7                  20753209.620                          46.450

 117486342.745 7  91378286.553 7  21939745.380    21939747.720          45.950
        43.950
 122902575.758 5  95590904.262 6  22999541.900    22999546.580          34.200
        40.200
 128071386.230 8                  24371174.300                          51.750

 19  2 28 14 33 38.0000000  0 18G29G20G27G25G15G21G31G16G10G26R22R13
                                R07R23R12R08R11E01
 122432032.515 6  95401583.23645  23298043.120    23298040.680          41.900
        30.650
 106357003.727 8  82875564.73047  20239064.580    20239058.560          48.450
        46.450
 129187550.731 7 100665611.75446  24583572.800    24583571.800          44.150
        38.700
 128656661.033 7 100251935.83945  24482547.400    24482548.460          42.350
        33.350
 132918618.922 6 103572930.50945  25293571.120    25293569.680          39.900
        30.950
 108455505.146 8  84510757.56747  20638396.800    20638390.480          50.150
        44.000
 124693620.303 7  97163840.20746  23728410.800    23728405.860          46.100
        37.850
 118430655.750 7  92283605.39046  22536604.340    22536598.400          47.450
        39.200
 112529195.252 8  87685079.36647  21413592.320    21413589.760          49.650
        44.850
 108653159.945 8  84664790.70947  20676007.980    20676005.720          50.050
        46.850
 112642357.057 8  87610740.000 7  21101710.280    21101713.200          48.050
        44.300
 116721239.069 6  90783200.164 6  21858139.900    21858142.840          41.700
        38.350
 112342257.079 7  87377320.985 6  20986476.780    20986478.640          43.350
        40.850
 118682865.042 7  92308901.840 6  22186508.180    22186513.520          44.650
        36.400
 110865219.944 7                  20754202.420                          46.850

 117478928.321 7  91372519.801 7  21938360.780    21938363.120          45.850
        43.700
 122910902.627 5  95597380.699 6  23001100.240    23001104.860          35.650
        39.550
 128072021.266 8                  24371295.140                          51.800

 19  2 28 14 33 40.0000000  0 20G29G20G27G25G15G21G31G16G10G26R22R13
                                R07R21R23R06R12R08R11E01
 122435345.237 7  95404164.55144  23298673.480    23298670.360          44.200
        28.900
 106355512.306 8  82874402.55747  20238780.780    20238774.740          48.500
        46.300
 129182616.608 7 100661766.98546  24582633.860    24582632.800          44.000
        40.800
 128664084.790 6 100257720.59345  24483960.240    24483960.980          39.050
        35.100
 132917419.300 6 103571995.77145  25293342.840    25293342.060          39.250
        31.700
 108458465.652 8  84513064.45847  20638960.180    20638953.840          50.150
        43.850
 124698634.414 7  97167747.32646  23729365.000    23729360.040          45.750
        38.600
 118424654.462 7  92278929.06346  22535462.340    22535456.360          47.350
        38.050
 112523597.893 8  87680717.78747  21412527.180    21412524.620          49.700
        44.850
 108651020.530 8  84663123.62647  20675600.860    20675598.600          49.950
        46.600
 112643308.025 7  87611479.642 7  21101888.440    21101891.340          47.900
        44.950
 116718181.428 6  90780822.004 6  21857567.280    21857570.240          41.550
        38.200
 112340346.803 7  87375835.242 6  20986119.920    20986121.800          42.800
        40.800
                                  23731058.040                          37.250

 118680440.995 7  92307016.470 6  22186055.020    22186060.380          44.950
        37.250
                                  23137276.720                          39.300

 110870526.391 7                  20755195.800                          46.400

 117471515.484 7  91366754.251 7  21936976.520    21936978.800          45.950
        43.350
 122919230.154 5  95603857.632 6  23002658.580    23002663.260          35.800
        39.400
 128072658.799 8                  24371416.460                          51.800

 19  2 28 14 33 42.0000000  0 20G29G20G27G25G15G21G31G16G10G26R22R13
                                R07R21R23R06R12R08R11E01
 122438658.385 7  95406746.18545  23299303.960    23299300.680          45.400
        34.250
 106354023.107 8  82873242.12747  20238497.380    20238491.340          48.500
        46.700
 129177681.754 7 100657921.66046  24581694.780    24581693.660          44.800
        38.400
 128671508.844 6 100263505.56245  24485373.120    24485374.020          38.900
        35.750
 132916220.831 5 103571061.97544  25293114.740    25293111.520          35.950
        26.900
 108461427.043 8  84515372.03247  20639523.720    20639517.380          50.150
        44.000
 124703648.406 7  97171654.31146  23730319.140    23730314.140          45.250
        38.250
 118418654.236 7  92274253.56446  22534320.540    22534314.560          46.950
        39.850
 112518001.955 8  87676357.31647  21411462.300    21411459.740          49.700
        45.300
 108648883.326 8  84661458.27047  20675194.160    20675191.920          50.000
        47.000
 112644258.701 7  87612219.056 7  21102066.520    21102069.460          47.900
        45.400
 116715126.673 6  90778446.082 6  21856995.280    21856998.160          41.550
        38.150
 112338439.456 7  87374351.746 6  20985763.600    20985765.500          43.600
        41.900
                                  23731713.360    23731719.260          37.400
        33.700
 118678016.732 7  92305130.936 6  22185601.820    22185607.220          44.200
        36.800
 123469595.040 6                  23138147.940                          38.500

 110875835.047 7                  20756189.580                          46.050

 117464103.354 7  91360989.248 7  21935592.380    21935594.600          45.550
        43.550
 122927557.335 6  95610334.317 6  23004216.900    23004221.600          39.450
        38.250
 128073297.975 8                  24371538.080                          51.750

 19  2 28 14 33 44.0000000  0 20G29G20G27G25G15G21G31G16G10G26R22R13
                                R07R21R23R06R12R08R11E01
 122441972.615 7  95409328.68445  23299934.640    23299931.520          44.800
        35.700
 106352536.750 8  82872083.92247  20238214.520    20238208.500          48.600
        47.100
 129172746.797 7 100654076.26246  24580755.660    24580754.640          43.850
        38.400
 128678933.758 6 100269291.25046  24486786.040    24486785.720          40.350
        36.850
 132915023.987 5 103570129.34445  25292887.000    25292883.020          34.950
        32.400
 108464389.924 8  84517680.77247  20640087.540    20640081.220          49.950
        43.600
 124708662.945 7  97175561.72146  23731273.360    23731268.340          46.050
        39.350
 118412655.690 7  92269579.37646  22533179.060    22533173.100          46.850
        38.650
 112512408.075 8  87671998.44747  21410397.840    21410395.260          49.900
        44.850
 108646748.951 8  84659795.11947  20674788.000    20674785.760          49.900
        46.800
 112645209.744 8  87612958.761 7  21102244.700    21102247.640          48.400
        45.200
 116712075.501 6  90776072.946 6  21856423.880    21856426.760          41.750
        38.500
 112336535.692 7  87372871.022 6  20985407.960    20985409.860          43.350
        40.850
 126996685.764 6                  23732367.880    23732372.360          36.950
        35.100
 118675592.960 7  92303245.792 6  22185148.720    22185154.140          44.850
        37.250
 123474249.821 6                  23139020.020                          38.750

 110881146.451 7                  20757183.880                          46.350

 117456692.485 7  91355225.229 7  21934208.480    21934210.620          45.000
        43.500
 122935885.083 6  95616811.458 6  23005775.340    23005780.020          38.400
        38.800
 128073939.399 8                  24371660.140                          51.800

 19  2 28 14 33 46.0000000  0 20G29G20G27G25G15G21G31G16G10G26R22R13
                                R07R21R23R06R12R08R11E01
 122445287.123 7  95411911.42846  23300565.360    23300562.300          46.000
        37.150
 106351052.483 8  82870927.35347  20237932.060    20237926.040          48.400
        47.100
 129167811.008 7 100650230.22546  24579816.380    24579815.360          43.750
        37.450
 128686358.710 6 100275076.92944  24488198.920    24488198.640          38.350
        27.800
 132913828.096 6 103569197.41745  25292659.460    25292655.900          37.700
        32.550
 108467353.543 8  84519990.08447  20640651.500    20640645.180          49.700
        44.050
 124713677.255 7  97179468.97346  23732227.560    23732222.520          44.850
        38.250
 118406658.065 7  92264905.91046  22532037.740    22532031.800          47.200
        39.350
 112506815.490 8  87667640.58447  21409333.620    21409331.020          49.800
        44.900
 108644616.649 8  84658133.58547  20674382.220    20674379.980          49.850
        46.300
 112646160.417 8  87613698.179 7  21102422.760    21102425.740          48.250
        44.900
 116709027.055 6  90773701.939 6  21855853.000    21855855.860          41.700
        38.150
 112334634.729 7  87371392.505 7  20985052.820    20985054.760          44.250
        42.300
 127000181.972 6  98777945.934 5  23733021.280    23733025.300          37.050
        35.100
 118673168.774 7  92301360.304 6  22184695.560    22184700.960          44.950
        36.950
 123478906.750 6                  23139892.240                          38.900

 110886459.839 7                  20758178.560                          46.300

 117449282.168 7  91349461.653 7  21932824.660    21932826.760          44.300
        43.250
 122944212.452 6  95623288.301 6  23007333.680    23007338.400          37.400
        39.200
 128074582.321 8                  24371782.480                          51.800

 19  2 28 14 33 48.0000000  0 20G29G20G27G25G15G21G31G16G10G26R22R13
                                R07R21R23R06R12R08R11E01
 122448602.089 7  95414494.49345  23301196.160    23301192.700          45.600
        35.750
 106349570.406 8  82869772.48947  20237650.040    20237644.020          48.150
        47.200
 129162874.462 7 100646383.56846  24578876.960    24578875.840          44.150
        37.400
 128693783.970 6 100280862.79345  24489611.860    24489613.000          36.850
        33.650
 132912633.087 6 103568266.23845  25292431.980    25292428.680          39.100
        32.900
 108470317.985 8  84522300.03647  20641215.600    20641209.280          49.700
        42.750
 124718691.449 7  97183376.14046  23733181.700    23733176.620          44.350
        37.300
 118400661.476 7  92260233.24146  22530896.640    22530890.680          47.050
        38.800
 112501224.309 8  87663283.81547  21408269.660    21408267.080          49.750
        44.900
 108642486.521 8  84656473.74147  20673976.880    20673974.640          50.000
        46.350
 112647110.777 8  87614437.344 7  21102600.820    21102603.800          48.050
        45.150
 116705981.522 6  90771333.195 6  21855282.680    21855285.520          41.750
        38.150
 112332736.618 7  87369916.174 6  20984698.260    20984700.180          43.250
        40.700
 127003677.695 6  98780664.822 5  23733674.320    23733678.920          37.550
        35.550
 118670744.342 7  92299474.633 6  22184242.320    22184247.740          45.000
        37.050
 123483566.075 6                  23140764.880                          38.650

 110891775.301 7                  20759173.620                          46.550

 117441872.554 7  91343698.622 7  21931440.960    21931443.040          44.200
        43.800
 122952539.609 6  95629764.947 6  23008892.020    23008896.700          36.750
        39.300
 128075226.862 8                  24371905.140                          51.750

 19  2 28 14 33 50.0000000  0 20G29G20G27G25G15G21G31G16G10G26R22R13
                                R07R21R23R06R12R08R11E01
 122451917.929 7  95417078.25946  23301827.160    23301823.540          46.200
        36.850
 106348090.966 8  82868619.68347  20237368.500    20237362.500          48.450
        47.150
 129157937.608 7 100642536.67146  24577937.500    24577936.360          44.300
        38.500
 128701209.827 6 100286649.14245  24491025.000    24491026.240          37.900
        35.250
 132911439.606 6 103567336.32045  25292204.900    25292202.260          37.200
        32.000
 108473283.712 8  84524611.00247  20641779.960    20641773.640          49.650
        43.550
 124723705.917 7  97187283.52046  23734135.860    23734130.800          44.450
        39.800
 118394666.340 7  92255561.70746  22529755.800    22529749.880          47.150
        38.600
 112495634.948 8  87658928.46747  21407206.040    21407203.460          49.800
        44.950
 108640359.028 8  84654815.95447  20673572.020    20673569.800          50.000
        46.850
 112648061.300 7  87615176.638 7  21102778.860    21102781.880          47.850
        44.850
 116702939.262 6  90768966.991 6  21854712.940    21854715.800          41.500
