% program   : RTKPOST ver.2.4.2
% inp file  : C:\dGPS\BP01_leicaR2.obs
% inp file  : C:\dGPS\UNSA00ARG_R_20190570000_01D_30S_MO.19o
% inp file  : C:\dGPS\brdc0570.19n
% inp file  : C:\dGPS\igr20422.sp3
% obs start : 2019/02/26 16:54:31.0 GPST (week2042 233671.0s)
% obs end   : 2019/02/26 17:46:01.0 GPST (week2042 236761.0s)
% pos mode  : kinematic
% freqs     : L1+L2
% solution  : forward
% elev mask : 15.0 deg
% dynamics  : on
% tidecorr  : on
% ionos opt : broadcast
% tropo opt : saastamoinen
% ephemeris : precise
% navi sys  : gps glonass galileo
% amb res   : continuous
% amb glo   : on
% val thres : 3.0
% antenna1  :                       ( 0.0000  0.0000  1.5200)
% antenna2  :                       ( 0.0000  0.0000  0.1300)
% ref pos   :-24.727456635, -65.407643440, 1257.9336
%
% (lat/lon/height=WGS84/ellipsoidal,Q=1:fix,2:float,3:sbas,4:dgps,5:single,6:ppp,ns=# of satellites)
%  GPST                , latitude(deg),longitude(deg), height(m),  Q, ns,  sdn(m),  sde(m),  sdu(m), sdne(m), sdeu(m), sdun(m),age(s), ratio
2019/02/26 17:02:44.000, -25.932626318, -65.875002007, 1675.4099,  2,  9,  0.3789,  0.4807,  1.2523,  0.0535, -0.1476,  0.4099,-16.00,   1.0
2019/02/26 17:02:45.000, -25.932623724, -65.875004161, 1675.4688,  2,  9,  0.0000,  0.0000,  0.8029, -0.5875,  0.5936,  0.6528,-15.00,   1.0
2019/02/26 17:02:46.000, -25.932624875, -65.875009946, 1675.5369,  2,  9,  0.2202,  0.2797,  0.7276,  0.0285, -0.0838,  0.2389,-14.00,   1.0
2019/02/26 17:02:47.000, -25.932624036, -65.875017982, 1675.6209,  2,  9,  0.1909,  0.2425,  0.6307,  0.0250, -0.0724,  0.2071,-13.00,   1.0
2019/02/26 17:02:48.000, -25.932619943, -65.875026284, 1675.5808,  2,  9,  0.1708,  0.2170,  0.5644,  0.0225, -0.0646,  0.1854,-12.00,   1.0
2019/02/26 17:02:49.000, -25.932615847, -65.875036424, 1675.4901,  2,  9,  0.1560,  0.1982,  0.5153,  0.0206, -0.0589,  0.1693,-11.00,   1.0
2019/02/26 17:02:50.000, -25.932617146, -65.875047617, 1675.5352,  2,  9,  0.1445,  0.1835,  0.4770,  0.0192, -0.0544,  0.1567,-10.00,   1.0
2019/02/26 17:02:51.000, -25.932619395, -65.875057615, 1675.6921,  2,  9,  0.1352,  0.1717,  0.4462,  0.0180, -0.0508,  0.1466, -9.00,   1.0
2019/02/26 17:02:52.000, -25.932621824, -65.875067354, 1675.8723,  2,  9,  0.1274,  0.1619,  0.4205,  0.0170, -0.0478,  0.1382, -8.00,   1.1
2019/02/26 17:02:53.000, -25.932622816, -65.875077394, 1675.9354,  2,  9,  0.1209,  0.1536,  0.3987,  0.0162, -0.0453,  0.1310, -7.00,   1.1
2019/02/26 17:02:54.000, -25.932623507, -65.875080493, 1675.9942,  2,  9,  0.1153,  0.1465,  0.3799,  0.0155, -0.0431,  0.1249, -6.00,   1.1
2019/02/26 17:02:55.000, -25.932624073, -65.875083977, 1675.9948,  2,  9,  0.1103,  0.1402,  0.3635,  0.0149, -0.0412,  0.1195, -5.00,   1.0
2019/02/26 17:02:56.000, -25.932627326, -65.875086221, 1676.0775,  2,  9,  0.1060,  0.1347,  0.3489,  0.0144, -0.0395,  0.1147, -4.00,   1.0
2019/02/26 17:02:57.000, -25.932628910, -65.875086716, 1675.9864,  2,  9,  0.1021,  0.1298,  0.3358,  0.0139, -0.0380,  0.1104, -3.00,   1.0
2019/02/26 17:02:58.000, -25.932628071, -65.875086824, 1676.0576,  2,  9,  0.0986,  0.1254,  0.3240,  0.0135, -0.0366,  0.1065, -2.00,   1.0
2019/02/26 17:02:59.000, -25.932628644, -65.875093510, 1676.0217,  2,  9,  0.0955,  0.1214,  0.3133,  0.0131, -0.0353,  0.1030, -1.00,   1.0
2019/02/26 17:03:00.000, -25.932631123, -65.875103903, 1675.9748,  2,  9,  0.0926,  0.1178,  0.3035,  0.0128, -0.0342,  0.0998,  0.00,   1.0
2019/02/26 17:03:01.000, -25.932633825, -65.875115117, 1676.0439,  2,  9,  0.0917,  0.1168,  0.3019,  0.0114, -0.0360,  0.0987,-29.00,   1.0
2019/02/26 17:03:02.000, -25.932635891, -65.875124741, 1676.0302,  2,  9,  0.0893,  0.1137,  0.2939,  0.0112, -0.0350,  0.0961,-28.00,   1.0
2019/02/26 17:03:03.000, -25.932632400, -65.875134633, 1675.9834,  2,  9,  0.0870,  0.1108,  0.2865,  0.0109, -0.0341,  0.0936,-27.00,   1.0
2019/02/26 17:03:04.000, -25.932628591, -65.875144880, 1675.8627,  2,  9,  0.0849,  0.1081,  0.2796,  0.0107, -0.0332,  0.0914,-26.00,   1.0
2019/02/26 17:03:05.000, -25.932624634, -65.875155892, 1675.7529,  2,  9,  0.0829,  0.1055,  0.2730,  0.0105, -0.0324,  0.0893,-25.00,   1.0
2019/02/26 17:03:06.000, -25.932619463, -65.875166600, 1675.6980,  2,  9,  0.0811,  0.1032,  0.2669,  0.0103, -0.0316,  0.0873,-24.00,   1.0
2019/02/26 17:03:07.000, -25.932614833, -65.875177206, 1675.5612,  2,  9,  0.0793,  0.1010,  0.2611,  0.0101, -0.0308,  0.0854,-23.00,   1.0
2019/02/26 17:03:08.000, -25.932614088, -65.875188496, 1675.5060,  2,  9,  0.0777,  0.0988,  0.2556,  0.0100, -0.0301,  0.0836,-22.00,   1.0
2019/02/26 17:03:09.000, -25.932615380, -65.875199373, 1675.5433,  2,  9,  0.0761,  0.0969,  0.2504,  0.0098, -0.0294,  0.0819,-21.00,   1.0
2019/02/26 17:03:10.000, -25.932618792, -65.875210057, 1675.6582,  2,  9,  0.0746,  0.0950,  0.2454,  0.0097, -0.0287,  0.0803,-20.00,   1.0
2019/02/26 17:03:11.000, -25.932623346, -65.875220150, 1675.7812,  2,  9,  0.0732,  0.0932,  0.2406,  0.0096, -0.0281,  0.0788,-19.00,   1.0
2019/02/26 17:03:12.000, -25.932627478, -65.875231313, 1675.7532,  2,  9,  0.0719,  0.0915,  0.2361,  0.0095, -0.0275,  0.0773,-18.00,   1.0
2019/02/26 17:03:13.000, -25.932629640, -65.875243229, 1675.8048,  2,  9,  0.0706,  0.0899,  0.2317,  0.0094, -0.0268,  0.0759,-17.00,   1.0
2019/02/26 17:03:14.000, -25.932632644, -65.875255201, 1675.8967,  2,  9,  0.0694,  0.0883,  0.2275,  0.0093, -0.0263,  0.0746,-16.00,   1.0
2019/02/26 17:03:15.000, -25.932633890, -65.875266862, 1675.9742,  2,  9,  0.0682,  0.0869,  0.2234,  0.0092, -0.0257,  0.0732,-15.00,   1.0
2019/02/26 17:03:16.000, -25.932634475, -65.875277988, 1676.0397,  2,  9,  0.0673,  0.0857,  0.2202,  0.0090, -0.0254,  0.0722,-14.00,   1.0
2019/02/26 17:03:17.000, -25.932634609, -65.875288708, 1676.1968,  2,  9,  0.0664,  0.0846,  0.2172,  0.0089, -0.0252,  0.0712,-13.00,   1.0
2019/02/26 17:03:18.000, -25.932634922, -65.875299817, 1676.2452,  2,  9,  0.0656,  0.0835,  0.2145,  0.0087, -0.0250,  0.0702,-12.00,   1.0
2019/02/26 17:03:19.000, -25.932635763, -65.875310700, 1676.3253,  2,  9,  0.0648,  0.0826,  0.2119,  0.0085, -0.0249,  0.0693,-11.00,   1.0
2019/02/26 17:03:20.000, -25.932637455, -65.875320617, 1676.4512,  2,  9,  0.0641,  0.0816,  0.2095,  0.0083, -0.0247,  0.0685,-10.00,   1.0
2019/02/26 17:03:21.000, -25.932641510, -65.875329444, 1676.5159,  2,  9,  0.0634,  0.0808,  0.2072,  0.0082, -0.0246,  0.0677, -9.00,   1.0
2019/02/26 17:03:22.000, -25.932644652, -65.875339078, 1676.6702,  2,  9,  0.0627,  0.0800,  0.2051,  0.0080, -0.0246,  0.0670, -8.00,   1.0
2019/02/26 17:03:23.000, -25.932644602, -65.875347986, 1676.7489,  2,  9,  0.0621,  0.0792,  0.2032,  0.0078, -0.0245,  0.0663, -7.00,   1.0
2019/02/26 17:03:29.000, -25.932644340, -65.875355698, 1676.8600,  2,  9,  0.0624,  0.0796,  0.2047,  0.0074, -0.0256,  0.0664, -1.00,   1.0
2019/02/26 17:03:30.000, -25.932644448, -65.875361445, 1676.9547,  2,  9,  0.0588,  0.0751,  0.1870,  0.0066, -0.0202,  0.0614,  0.00,   1.1
2019/02/26 17:03:31.000, -25.932647615, -65.875370636, 1677.0241,  2,  9,  0.0608,  0.0779,  0.1961,  0.0073, -0.0248,  0.0635,-29.00,   1.1
2019/02/26 17:03:32.000, -25.932653387, -65.875380703, 1677.1233,  2,  9,  0.0600,  0.0769,  0.1934,  0.0073, -0.0243,  0.0627,-28.00,   1.1
2019/02/26 17:03:33.000, -25.932658430, -65.875391105, 1677.2588,  2,  9,  0.0592,  0.0759,  0.1908,  0.0073, -0.0238,  0.0619,-27.00,   1.1
2019/02/26 17:03:34.000, -25.932663496, -65.875401820, 1677.2992,  2,  9,  0.0585,  0.0749,  0.1882,  0.0073, -0.0233,  0.0611,-26.00,   1.1
2019/02/26 17:03:35.000, -25.932667833, -65.875412271, 1677.3875,  2,  9,  0.0577,  0.0739,  0.1856,  0.0073, -0.0229,  0.0603,-25.00,   1.1
2019/02/26 17:03:36.000, -25.932673523, -65.875421676, 1677.3920,  2,  9,  0.0570,  0.0730,  0.1831,  0.0073, -0.0224,  0.0595,-24.00,   1.1
2019/02/26 17:03:37.000, -25.932678118, -65.875433320, 1677.3733,  2,  9,  0.0563,  0.0721,  0.1806,  0.0073, -0.0220,  0.0588,-23.00,   1.1
2019/02/26 17:03:38.000, -25.932678884, -65.875444782, 1677.4796,  2,  9,  0.0556,  0.0712,  0.1782,  0.0073, -0.0216,  0.0580,-22.00,   1.1
2019/02/26 17:03:39.000, -25.932675520, -65.875455159, 1677.7453,  2,  9,  0.0549,  0.0703,  0.1758,  0.0073, -0.0211,  0.0573,-21.00,   1.1
2019/02/26 17:03:40.000, -25.932673379, -65.875465948, 1677.9283,  2,  9,  0.0543,  0.0695,  0.1734,  0.0073, -0.0207,  0.0566,-20.00,   1.1
2019/02/26 17:03:41.000, -25.932673303, -65.875477665, 1678.0119,  2,  9,  0.0537,  0.0687,  0.1711,  0.0073, -0.0203,  0.0559,-19.00,   1.1
2019/02/26 17:03:42.000, -25.932674127, -65.875490174, 1678.1290,  2,  9,  0.0530,  0.0679,  0.1688,  0.0073, -0.0199,  0.0552,-18.00,   1.1
2019/02/26 17:03:43.000, -25.932673455, -65.875502155, 1678.2759,  2,  9,  0.0524,  0.0671,  0.1665,  0.0073, -0.0195,  0.0545,-17.00,   1.1
2019/02/26 17:03:44.000, -25.932672340, -65.875514001, 1678.4245,  2,  9,  0.0518,  0.0664,  0.1642,  0.0074, -0.0191,  0.0538,-16.00,   1.1
2019/02/26 17:03:45.000, -25.932671126, -65.875525241, 1678.5092,  2,  9,  0.0513,  0.0657,  0.1619,  0.0074, -0.0187,  0.0531,-15.00,   1.1
2019/02/26 17:03:46.000, -25.932670222, -65.875536080, 1678.6315,  2,  9,  0.0509,  0.0653,  0.1607,  0.0073, -0.0187,  0.0527,-14.00,   1.2
2019/02/26 17:03:47.000, -25.932667826, -65.875546927, 1678.8236,  2,  9,  0.0506,  0.0649,  0.1597,  0.0071, -0.0187,  0.0523,-13.00,   1.2
2019/02/26 17:03:48.000, -25.932665816, -65.875557938, 1678.9214,  2,  9,  0.0504,  0.0646,  0.1587,  0.0070, -0.0188,  0.0519,-12.00,   1.2
2019/02/26 17:03:49.000, -25.932666748, -65.875568157, 1679.0750,  2,  9,  0.0501,  0.0643,  0.1579,  0.0069, -0.0188,  0.0516,-11.00,   1.2
2019/02/26 17:03:50.000, -25.932668485, -65.875578798, 1679.2107,  2,  9,  0.0499,  0.0640,  0.1572,  0.0068, -0.0189,  0.0513,-10.00,   1.2
2019/02/26 17:03:51.000, -25.932669130, -65.875589738, 1679.2617,  2,  9,  0.0497,  0.0638,  0.1566,  0.0066, -0.0191,  0.0510, -9.00,   1.2
2019/02/26 17:03:52.000, -25.932671183, -65.875599999, 1679.3872,  2,  9,  0.0495,  0.0635,  0.1561,  0.0065, -0.0192,  0.0508, -8.00,   1.2
2019/02/26 17:03:53.000, -25.932673378, -65.875610700, 1679.4886,  2,  9,  0.0493,  0.0633,  0.1556,  0.0063, -0.0194,  0.0506, -7.00,   1.2
2019/02/26 17:03:54.000, -25.932676666, -65.875621813, 1679.5202,  2,  9,  0.0492,  0.0632,  0.1553,  0.0062, -0.0195,  0.0504, -6.00,   1.2
2019/02/26 17:03:55.000, -25.932678885, -65.875633907, 1679.6601,  2,  9,  0.0490,  0.0630,  0.1550,  0.0060, -0.0197,  0.0502, -5.00,   1.2
2019/02/26 17:03:56.000, -25.932679414, -65.875645670, 1679.8560,  2,  9,  0.0489,  0.0629,  0.1548,  0.0059, -0.0199,  0.0501, -4.00,   1.2
2019/02/26 17:03:57.000, -25.932680987, -65.875657430, 1679.9310,  2,  9,  0.0488,  0.0628,  0.1547,  0.0057, -0.0202,  0.0499, -3.00,   1.2
2019/02/26 17:03:58.000, -25.932682560, -65.875668018, 1680.1440,  2,  9,  0.0487,  0.0627,  0.1546,  0.0055, -0.0204,  0.0498, -2.00,   1.2
2019/02/26 17:03:59.000, -25.932681906, -65.875679499, 1680.3474,  2,  9,  0.0487,  0.0626,  0.1546,  0.0053, -0.0206,  0.0498, -1.00,   1.2
2019/02/26 17:04:00.000, -25.932680449, -65.875690147, 1680.4612,  2,  9,  0.0445,  0.0574,  0.1340,  0.0074, -0.0143,  0.0443,  0.00,   1.2
2019/02/26 17:04:01.000, -25.932680894, -65.875701051, 1680.6175,  2,  9,  0.0479,  0.0619,  0.1488,  0.0054, -0.0201,  0.0477,-29.00,   1.2
2019/02/26 17:04:02.000, -25.932685273, -65.875711598, 1680.6982,  2,  9,  0.0474,  0.0612,  0.1470,  0.0055, -0.0196,  0.0472,-28.00,   1.2
2019/02/26 17:04:03.000, -25.932686455, -65.875723331, 1680.7428,  2,  9,  0.0469,  0.0606,  0.1452,  0.0056, -0.0192,  0.0467,-27.00,   1.1
2019/02/26 17:04:04.000, -25.932685617, -65.875734680, 1680.8845,  2,  9,  0.0464,  0.0599,  0.1434,  0.0056, -0.0188,  0.0462,-26.00,   1.1
2019/02/26 17:04:05.000, -25.932685941, -65.875746253, 1681.0364,  2,  9,  0.0459,  0.0593,  0.1417,  0.0057, -0.0184,  0.0457,-25.00,   1.1
2019/02/26 17:04:06.000, -25.932687765, -65.875758224, 1681.0712,  2,  9,  0.0454,  0.0587,  0.1400,  0.0058, -0.0180,  0.0452,-24.00,   1.1
2019/02/26 17:04:07.000, -25.932688922, -65.875770244, 1681.1732,  2,  9,  0.0449,  0.0581,  0.1382,  0.0059, -0.0176,  0.0447,-23.00,   1.1
2019/02/26 17:04:08.000, -25.932690243, -65.875782636, 1681.2898,  2,  9,  0.0445,  0.0575,  0.1365,  0.0059, -0.0172,  0.0443,-22.00,   1.1
2019/02/26 17:04:09.000, -25.932691807, -65.875794827, 1681.3695,  2,  9,  0.0440,  0.0569,  0.1349,  0.0060, -0.0168,  0.0438,-21.00,   1.1
2019/02/26 17:04:10.000, -25.932694995, -65.875806500, 1681.4222,  2,  9,  0.0436,  0.0563,  0.1332,  0.0060, -0.0164,  0.0433,-20.00,   1.1
2019/02/26 17:04:11.000, -25.932699545, -65.875817594, 1681.5395,  2,  9,  0.0432,  0.0558,  0.1315,  0.0061, -0.0160,  0.0428,-19.00,   1.1
2019/02/26 17:04:12.000, -25.932703639, -65.875829266, 1681.6332,  2,  9,  0.0428,  0.0553,  0.1298,  0.0061, -0.0156,  0.0424,-18.00,   1.1
2019/02/26 17:04:13.000, -25.932706100, -65.875841313, 1681.6767,  2,  9,  0.0423,  0.0547,  0.1282,  0.0062, -0.0153,  0.0419,-17.00,   1.1
2019/02/26 17:04:14.000, -25.932707623, -65.875853153, 1681.7681,  2,  9,  0.0419,  0.0542,  0.1265,  0.0062, -0.0149,  0.0414,-16.00,   1.1
2019/02/26 17:04:15.000, -25.932708563, -65.875864996, 1681.8635,  2,  9,  0.0416,  0.0537,  0.1248,  0.0063, -0.0145,  0.0409,-15.00,   1.1
2019/02/26 17:04:16.000, -25.932705008, -65.875877052, 1681.9198,  2,  9,  0.0415,  0.0537,  0.1245,  0.0062, -0.0147,  0.0408,-14.00,   1.1
2019/02/26 17:04:17.000, -25.932701417, -65.875888804, 1681.9977,  2,  9,  0.0414,  0.0536,  0.1243,  0.0061, -0.0148,  0.0406,-13.00,   1.1
2019/02/26 17:04:18.000, -25.932698546, -65.875900753, 1682.1168,  2,  9,  0.0413,  0.0535,  0.1242,  0.0060, -0.0150,  0.0405,-12.00,   1.1
2019/02/26 17:04:19.000, -25.932695809, -65.875911290, 1682.1254,  2,  9,  0.0413,  0.0535,  0.1242,  0.0059, -0.0152,  0.0405,-11.00,   1.1
2019/02/26 17:04:20.000, -25.932691645, -65.875920493, 1682.1740,  2,  9,  0.0413,  0.0535,  0.1243,  0.0058, -0.0154,  0.0404,-10.00,   1.1
2019/02/26 17:04:21.000, -25.932689043, -65.875931192, 1682.2330,  2,  9,  0.0413,  0.0535,  0.1245,  0.0057, -0.0157,  0.0404, -9.00,   1.1
2019/02/26 17:04:22.000, -25.932689699, -65.875941094, 1682.2685,  2,  9,  0.0413,  0.0535,  0.1247,  0.0055, -0.0159,  0.0404, -8.00,   1.0
2019/02/26 17:04:23.000, -25.932691632, -65.875951246, 1682.4151,  2,  9,  0.0413,  0.0536,  0.1250,  0.0054, -0.0162,  0.0404, -7.00,   1.0
2019/02/26 17:04:24.000, -25.932691683, -65.875961973, 1682.4181,  2,  9,  0.0414,  0.0536,  0.1254,  0.0053, -0.0165,  0.0405, -6.00,   1.0
2019/02/26 17:04:25.000, -25.932694598, -65.875972283, 1682.4847,  2,  9,  0.0414,  0.0537,  0.1258,  0.0051, -0.0168,  0.0405, -5.00,   1.0
2019/02/26 17:04:26.000, -25.932697684, -65.875977339, 1682.5272,  2,  9,  0.0415,  0.0538,  0.1263,  0.0050, -0.0171,  0.0406, -4.00,   1.0
2019/02/26 17:04:27.000, -25.932698195, -65.875977837, 1682.5470,  2,  9,  0.0416,  0.0539,  0.1269,  0.0048, -0.0174,  0.0407, -3.00,   1.0
2019/02/26 17:04:28.000, -25.932700652, -65.875977800, 1682.5381,  2,  9,  0.0417,  0.0540,  0.1275,  0.0046, -0.0177,  0.0408, -2.00,   1.0
2019/02/26 17:04:29.000, -25.932707627, -65.875979296, 1682.5849,  2,  9,  0.0418,  0.0542,  0.1282,  0.0045, -0.0181,  0.0409, -1.00,   1.0
2019/02/26 17:04:30.000, -25.932710603, -65.875978869, 1682.5948,  2,  9,  0.0371,  0.0483,  0.1049,  0.0067, -0.0108,  0.0348,  0.00,   1.0
2019/02/26 17:04:31.000, -25.932710984, -65.875978672, 1682.6072,  2,  9,  0.0412,  0.0538,  0.1238,  0.0045, -0.0177,  0.0393,-29.00,   1.0
2019/02/26 17:04:32.000, -25.932711103, -65.875978459, 1682.6202,  2,  9,  0.0408,  0.0532,  0.1222,  0.0046, -0.0172,  0.0389,-28.00,   1.0
2019/02/26 17:04:33.000, -25.932711326, -65.875978055, 1682.6305,  2,  9,  0.0404,  0.0526,  0.1206,  0.0048, -0.0168,  0.0385,-27.00,   1.0
2019/02/26 17:04:34.000, -25.932711437, -65.875977877, 1682.6456,  2,  9,  0.0400,  0.0521,  0.1190,  0.0049, -0.0164,  0.0380,-26.00,   1.0
2019/02/26 17:04:35.000, -25.932711357, -65.875977767, 1682.6590,  2,  9,  0.0395,  0.0515,  0.1174,  0.0050, -0.0160,  0.0376,-25.00,   1.0
2019/02/26 17:04:36.000, -25.932711846, -65.875977542, 1682.6814,  2,  9,  0.0391,  0.0510,  0.1158,  0.0051, -0.0156,  0.0372,-24.00,   1.0
2019/02/26 17:04:37.000, -25.932712382, -65.875976589, 1682.6766,  2,  9,  0.0387,  0.0505,  0.1143,  0.0051, -0.0152,  0.0368,-23.00,   1.0
2019/02/26 17:04:38.000, -25.932712676, -65.875975471, 1682.6956,  2,  9,  0.0384,  0.0500,  0.1127,  0.0052, -0.0147,  0.0364,-22.00,   1.0
2019/02/26 17:04:39.000, -25.932711235, -65.875975960, 1682.7052,  2,  9,  0.0380,  0.0495,  0.1112,  0.0053, -0.0143,  0.0359,-21.00,   1.0
2019/02/26 17:04:40.000, -25.932706177, -65.875980016, 1682.7449,  2,  9,  0.0376,  0.0490,  0.1097,  0.0054, -0.0139,  0.0355,-20.00,   1.0
2019/02/26 17:04:41.000, -25.932703154, -65.875985401, 1682.7747,  2,  9,  0.0372,  0.0486,  0.1082,  0.0054, -0.0136,  0.0351,-19.00,   1.0
2019/02/26 17:04:42.000, -25.932701368, -65.875989550, 1682.7781,  2,  9,  0.0369,  0.0481,  0.1067,  0.0055, -0.0132,  0.0347,-18.00,   1.0
2019/02/26 17:04:43.000, -25.932701501, -65.875989684, 1682.7709,  2,  9,  0.0365,  0.0477,  0.1052,  0.0056, -0.0128,  0.0343,-17.00,   1.0
2019/02/26 17:04:44.000, -25.932702123, -65.875988780, 1682.7917,  2,  9,  0.0362,  0.0472,  0.1038,  0.0056, -0.0124,  0.0339,-16.00,   1.0
2019/02/26 17:04:45.000, -25.932701780, -65.875993198, 1682.7606,  2,  9,  0.0359,  0.0468,  0.1023,  0.0057, -0.0120,  0.0335,-15.00,   1.0
2019/02/26 17:04:46.000, -25.932700717, -65.876003760, 1682.8294,  2,  9,  0.0359,  0.0469,  0.1024,  0.0056, -0.0122,  0.0335,-14.00,   1.0
2019/02/26 17:04:47.000, -25.932701935, -65.876015821, 1682.8972,  2,  9,  0.0359,  0.0469,  0.1027,  0.0055, -0.0125,  0.0335,-13.00,   1.0
2019/02/26 17:04:48.000, -25.932703493, -65.876028206, 1682.9097,  2,  9,  0.0360,  0.0470,  0.1031,  0.0054, -0.0128,  0.0336,-12.00,   1.0
2019/02/26 17:04:49.000, -25.932705835, -65.876041301, 1682.9337,  2,  9,  0.0360,  0.0471,  0.1035,  0.0053, -0.0130,  0.0336,-11.00,   1.0
2019/02/26 17:04:50.000, -25.932706825, -65.876054791, 1682.9076,  2,  9,  0.0361,  0.0472,  0.1040,  0.0052, -0.0133,  0.0337,-10.00,   1.0
2019/02/26 17:04:51.000, -25.932707001, -65.876068043, 1682.9129,  2,  9,  0.0362,  0.0474,  0.1046,  0.0051, -0.0137,  0.0338, -9.00,   1.0
2019/02/26 17:04:52.000, -25.932705827, -65.876081433, 1682.9512,  2,  9,  0.0363,  0.0475,  0.1053,  0.0050, -0.0140,  0.0339, -8.00,   1.0
2019/02/26 17:04:53.000, -25.932705460, -65.876095036, 1683.0188,  2,  9,  0.0365,  0.0477,  0.1060,  0.0049, -0.0143,  0.0341, -7.00,   1.0
2019/02/26 17:04:54.000, -25.932706004, -65.876108331, 1683.0381,  2,  9,  0.0366,  0.0479,  0.1068,  0.0048, -0.0147,  0.0342, -6.00,   1.0
2019/02/26 17:04:55.000, -25.932705291, -65.876121944, 1683.0633,  2,  9,  0.0368,  0.0481,  0.1077,  0.0046, -0.0150,  0.0344, -5.00,   1.0
2019/02/26 17:04:56.000, -25.932705612, -65.876135058, 1683.0659,  2,  9,  0.0369,  0.0483,  0.1086,  0.0045, -0.0154,  0.0346, -4.00,   1.0
2019/02/26 17:04:57.000, -25.932707340, -65.876148279, 1683.0920,  2,  9,  0.0371,  0.0485,  0.1095,  0.0043, -0.0157,  0.0348, -3.00,   1.0
2019/02/26 17:04:58.000, -25.932709171, -65.876161545, 1683.1272,  2,  9,  0.0373,  0.0488,  0.1105,  0.0042, -0.0161,  0.0350, -2.00,   1.0
2019/02/26 17:04:59.000, -25.932710837, -65.876174912, 1683.1775,  2,  9,  0.0375,  0.0490,  0.1116,  0.0040, -0.0165,  0.0352, -1.00,   1.0
2019/02/26 17:05:00.000, -25.932712126, -65.876188340, 1683.2244,  2,  9,  0.0323,  0.0425,  0.0857,  0.0062, -0.0086,  0.0286,  0.00,   1.1
2019/02/26 17:05:01.000, -25.932713100, -65.876201752, 1683.2347,  2,  9,  0.0369,  0.0481,  0.1058, -0.0038, -0.0211,  0.0327,-29.00,   1.1
2019/02/26 17:05:02.000, -25.932713244, -65.876214224, 1683.2512,  2,  9,  0.0365,  0.0476,  0.1043, -0.0034, -0.0205,  0.0324,-28.00,   1.1
2019/02/26 17:05:03.000, -25.932715884, -65.876227140, 1683.2944,  2,  9,  0.0361,  0.0471,  0.1028, -0.0031, -0.0200,  0.0320,-27.00,   1.1
2019/02/26 17:05:04.000, -25.932721820, -65.876238551, 1683.3191,  2,  9,  0.0357,  0.0466,  0.1013, -0.0027, -0.0194,  0.0316,-26.00,   1.1
2019/02/26 17:05:05.000, -25.932727468, -65.876250442, 1683.3239,  2,  9,  0.0353,  0.0461,  0.0998, -0.0022, -0.0189,  0.0313,-25.00,   1.1
2019/02/26 17:05:06.000, -25.932730883, -65.876262657, 1683.3164,  2,  9,  0.0349,  0.0456,  0.0983, -0.0017, -0.0183,  0.0309,-24.00,   1.1
2019/02/26 17:05:07.000, -25.932732452, -65.876275007, 1683.3446,  2,  9,  0.0346,  0.0451,  0.0969, -0.0008, -0.0178,  0.0305,-23.00,   1.1
2019/02/26 17:05:08.000, -25.932733523, -65.876286873, 1683.4012,  2,  9,  0.0342,  0.0447,  0.0954,  0.0011, -0.0172,  0.0302,-22.00,   1.1
2019/02/26 17:05:09.000, -25.932736212, -65.876299515, 1683.4058,  2,  9,  0.0338,  0.0442,  0.0940,  0.0018, -0.0167,  0.0298,-21.00,   1.1
2019/02/26 17:05:10.000, -25.932737959, -65.876311618, 1683.4035,  2,  9,  0.0335,  0.0438,  0.0926,  0.0022, -0.0162,  0.0295,-20.00,   1.1
2019/02/26 17:05:11.000, -25.932738657, -65.876324191, 1683.4352,  2,  9,  0.0332,  0.0434,  0.0913,  0.0025, -0.0157,  0.0292,-19.00,   1.1
2019/02/26 17:05:12.000, -25.932738173, -65.876336636, 1683.4735,  2,  9,  0.0328,  0.0429,  0.0899,  0.0028, -0.0152,  0.0288,-18.00,   1.1
2019/02/26 17:05:13.000, -25.932737508, -65.876349339, 1683.5062,  2,  9,  0.0325,  0.0425,  0.0885,  0.0031, -0.0147,  0.0285,-17.00,   1.1
2019/02/26 17:05:14.000, -25.932736258, -65.876362122, 1683.4934,  2,  9,  0.0322,  0.0422,  0.0872,  0.0033, -0.0142,  0.0281,-16.00,   1.1
2019/02/26 17:05:15.000, -25.932734401, -65.876374508, 1683.5394,  2,  9,  0.0319,  0.0418,  0.0858,  0.0035, -0.0137,  0.0278,-15.00,   1.1
2019/02/26 17:05:16.000, -25.932731660, -65.876386969, 1683.5937,  2,  9,  0.0320,  0.0419,  0.0862,  0.0032, -0.0142,  0.0278,-14.00,   1.1
2019/02/26 17:05:17.000, -25.932728972, -65.876399169, 1683.5999,  2,  9,  0.0321,  0.0420,  0.0866,  0.0028, -0.0147,  0.0279,-13.00,   1.1
2019/02/26 17:05:18.000, -25.932726083, -65.876410780, 1683.5863,  2,  9,  0.0322,  0.0421,  0.0872,  0.0023, -0.0153,  0.0279,-12.00,   1.1
2019/02/26 17:05:19.000, -25.932724603, -65.876422887, 1683.6239,  2,  9,  0.0323,  0.0422,  0.0878,  0.0016, -0.0158,  0.0280,-11.00,   1.1
2019/02/26 17:05:20.000, -25.932722380, -65.876435574, 1683.6733,  2,  9,  0.0324,  0.0424,  0.0885, -0.0003, -0.0164,  0.0281,-10.00,   1.1
2019/02/26 17:05:21.000, -25.932720274, -65.876447671, 1683.6519,  2,  9,  0.0326,  0.0426,  0.0893, -0.0017, -0.0169,  0.0282, -9.00,   1.1
2019/02/26 17:05:22.000, -25.932718192, -65.876459555, 1683.6519,  2,  9,  0.0328,  0.0428,  0.0901, -0.0024, -0.0175,  0.0283, -8.00,   1.1
2019/02/26 17:05:23.000, -25.932717400, -65.876471800, 1683.7011,  2,  9,  0.0329,  0.0430,  0.0910, -0.0030, -0.0181,  0.0285, -7.00,   1.1
2019/02/26 17:05:24.000, -25.932717241, -65.876484384, 1683.7027,  2,  9,  0.0331,  0.0432,  0.0919, -0.0034, -0.0186,  0.0286, -6.00,   1.1
2019/02/26 17:05:25.000, -25.932716129, -65.876496694, 1683.6334,  2,  9,  0.0333,  0.0434,  0.0929, -0.0039, -0.0192,  0.0288, -5.00,   1.1
2019/02/26 17:05:26.000, -25.932714451, -65.876508071, 1683.6426,  2,  9,  0.0335,  0.0437,  0.0939, -0.0043, -0.0198,  0.0290, -4.00,   1.1
2019/02/26 17:05:27.000, -25.932713541, -65.876519802, 1683.6859,  2,  9,  0.0338,  0.0439,  0.0950, -0.0046, -0.0204,  0.0292, -3.00,   1.1
2019/02/26 17:05:28.000, -25.932712840, -65.876532214, 1683.6724,  2,  9,  0.0340,  0.0442,  0.0961, -0.0050, -0.0210,  0.0294, -2.00,   1.1
2019/02/26 17:05:29.000, -25.932710399, -65.876544643, 1683.5994,  2,  9,  0.0342,  0.0445,  0.0973, -0.0053, -0.0216,  0.0296, -1.00,   1.1
2019/02/26 17:05:30.000, -25.932706540, -65.876557431, 1683.5799,  2,  9,  0.0288,  0.0380,  0.0714,  0.0048, -0.0095,  0.0238,  0.00,   1.1
2019/02/26 17:05:31.000, -25.932702821, -65.876569667, 1683.5691,  2,  9,  0.0339,  0.0443,  0.0948, -0.0053, -0.0214,  0.0286,-29.00,   1.1
2019/02/26 17:05:32.000, -25.932698929, -65.876582272, 1683.5956,  2,  9,  0.0335,  0.0437,  0.0932, -0.0050, -0.0209,  0.0283,-28.00,   1.1
2019/02/26 17:05:33.000, -25.932695382, -65.876594972, 1683.5657,  2,  9,  0.0331,  0.0432,  0.0916, -0.0048, -0.0203,  0.0279,-27.00,   1.1
2019/02/26 17:05:34.000, -25.932693147, -65.876607485, 1683.5238,  2,  9,  0.0327,  0.0428,  0.0901, -0.0045, -0.0197,  0.0275,-26.00,   1.1
2019/02/26 17:05:35.000, -25.932692593, -65.876620590, 1683.5573,  2,  9,  0.0324,  0.0423,  0.0886, -0.0042, -0.0191,  0.0272,-25.00,   1.1
2019/02/26 17:05:36.000, -25.932693436, -65.876633915, 1683.5901,  2,  9,  0.0320,  0.0418,  0.0871, -0.0039, -0.0185,  0.0268,-24.00,   1.1
2019/02/26 17:05:37.000, -25.932694356, -65.876647382, 1683.5996,  2,  9,  0.0316,  0.0414,  0.0856, -0.0035, -0.0180,  0.0265,-23.00,   1.1
2019/02/26 17:05:38.000, -25.932694445, -65.876660625, 1683.6098,  2,  9,  0.0313,  0.0409,  0.0842, -0.0032, -0.0174,  0.0262,-22.00,   1.1
2019/02/26 17:05:39.000, -25.932694182, -65.876672820, 1683.5758,  2,  9,  0.0309,  0.0405,  0.0827, -0.0028, -0.0168,  0.0258,-21.00,   1.1
2019/02/26 17:05:40.000, -25.932694536, -65.876685291, 1683.5777,  2,  9,  0.0306,  0.0401,  0.0813, -0.0024, -0.0163,  0.0255,-20.00,   1.1
2019/02/26 17:05:41.000, -25.932694735, -65.876698007, 1683.6126,  2,  9,  0.0303,  0.0397,  0.0799, -0.0020, -0.0158,  0.0252,-19.00,   1.0
2019/02/26 17:05:42.000, -25.932695825, -65.876710898, 1683.5872,  2,  9,  0.0299,  0.0393,  0.0785, -0.0014, -0.0152,  0.0248,-18.00,   1.0
2019/02/26 17:05:43.000, -25.932697630, -65.876723768, 1683.5355,  2,  9,  0.0296,  0.0389,  0.0772, -0.0005, -0.0147,  0.0245,-17.00,   1.0
2019/02/26 17:05:44.000, -25.932701294, -65.876735906, 1683.5403,  2,  9,  0.0293,  0.0385,  0.0758,  0.0012, -0.0142,  0.0242,-16.00,   1.0
2019/02/26 17:05:45.000, -25.932705859, -65.876748199, 1683.5467,  2,  9,  0.0290,  0.0382,  0.0745,  0.0017, -0.0137,  0.0239,-15.00,   1.0
2019/02/26 17:05:46.000, -25.932710254, -65.876760588, 1683.5695,  2,  9,  0.0292,  0.0383,  0.0751,  0.0010, -0.0141,  0.0240,-14.00,   1.0
2019/02/26 17:05:47.000, -25.932714454, -65.876773140, 1683.5711,  2,  9,  0.0293,  0.0385,  0.0758, -0.0010, -0.0146,  0.0241,-13.00,   1.0
2019/02/26 17:05:48.000, -25.932718783, -65.876785239, 1683.5629,  2,  9,  0.0295,  0.0387,  0.0766, -0.0018, -0.0151,  0.0242,-12.00,   1.0
2019/02/26 17:05:49.000, -25.932723390, -65.876797027, 1683.5832,  2,  9,  0.0296,  0.0389,  0.0775, -0.0023, -0.0157,  0.0244,-11.00,   1.0
2019/02/26 17:05:50.000, -25.932728233, -65.876808770, 1683.6056,  2,  9,  0.0298,  0.0391,  0.0784, -0.0028, -0.0162,  0.0245,-10.00,   1.0
2019/02/26 17:05:51.000, -25.932732232, -65.876821062, 1683.6337,  2,  9,  0.0300,  0.0393,  0.0794, -0.0032, -0.0167,  0.0247, -9.00,   1.0
2019/02/26 17:05:52.000, -25.932734199, -65.876833734, 1683.5995,  2,  9,  0.0302,  0.0395,  0.0805, -0.0036, -0.0173,  0.0249, -8.00,   1.0
2019/02/26 17:05:53.000, -25.932737615, -65.876845665, 1683.6034,  2,  9,  0.0304,  0.0398,  0.0816, -0.0039, -0.0178,  0.0251, -7.00,   1.0
2019/02/26 17:05:54.000, -25.932742670, -65.876857182, 1683.6503,  2,  9,  0.0307,  0.0401,  0.0827, -0.0043, -0.0184,  0.0253, -6.00,   1.0
2019/02/26 17:05:55.000, -25.932748841, -65.876868686, 1683.6664,  2,  9,  0.0309,  0.0404,  0.0839, -0.0046, -0.0190,  0.0256, -5.00,   1.0
2019/02/26 17:05:56.000, -25.932754170, -65.876880086, 1683.6552,  2,  9,  0.0312,  0.0407,  0.0852, -0.0049, -0.0196,  0.0258, -4.00,   1.0
2019/02/26 17:05:57.000, -25.932758215, -65.876892229, 1683.6516,  2,  9,  0.0314,  0.0410,  0.0864, -0.0052, -0.0201,  0.0261, -3.00,   1.0
2019/02/26 17:05:58.000, -25.932760390, -65.876904193, 1683.7127,  2,  9,  0.0317,  0.0413,  0.0878, -0.0055, -0.0207,  0.0263, -2.00,   1.0
2019/02/26 17:05:59.000, -25.932763002, -65.876916777, 1683.6691,  2,  9,  0.0320,  0.0417,  0.0891, -0.0058, -0.0213,  0.0266, -1.00,   1.0
2019/02/26 17:06:00.000, -25.932766976, -65.876928898, 1683.6113,  2,  9,  0.0261,  0.0347,  0.0610,  0.0040, -0.0091,  0.0203,  0.00,   1.0
2019/02/26 17:06:01.000, -25.932771818, -65.876940526, 1683.5916,  2,  9,  0.0317,  0.0415,  0.0873, -0.0058, -0.0211,  0.0259,-29.00,   1.0
2019/02/26 17:06:02.000, -25.932774388, -65.876952858, 1683.5946,  2,  9,  0.0313,  0.0410,  0.0856, -0.0055, -0.0205,  0.0255,-28.00,   1.0
2019/02/26 17:06:03.000, -25.932774134, -65.876965414, 1683.6193,  2,  9,  0.0309,  0.0405,  0.0840, -0.0052, -0.0199,  0.0251,-27.00,   1.0
2019/02/26 17:06:04.000, -25.932771909, -65.876977180, 1683.5815,  2,  9,  0.0306,  0.0400,  0.0824, -0.0050, -0.0193,  0.0247,-26.00,   1.0
2019/02/26 17:06:05.000, -25.932768986, -65.876989138, 1683.5935,  2,  9,  0.0302,  0.0395,  0.0808, -0.0047, -0.0188,  0.0244,-25.00,   1.0
2019/02/26 17:06:06.000, -25.932764870, -65.877000410, 1683.6439,  2,  9,  0.0298,  0.0391,  0.0793, -0.0044, -0.0182,  0.0240,-24.00,   1.0
2019/02/26 17:06:07.000, -25.932757362, -65.877009321, 1683.6524,  2,  9,  0.0294,  0.0386,  0.0777, -0.0041, -0.0176,  0.0237,-23.00,   1.0
2019/02/26 17:06:08.000, -25.932748248, -65.877016202, 1683.6563,  2,  9,  0.0291,  0.0382,  0.0762, -0.0038, -0.0170,  0.0233,-22.00,   1.0
2019/02/26 17:06:09.000, -25.932739255, -65.877023102, 1683.7093,  2,  9,  0.0287,  0.0378,  0.0747, -0.0035, -0.0164,  0.0230,-21.00,   1.0
2019/02/26 17:06:10.000, -25.932730647, -65.877030774, 1683.7124,  2,  9,  0.0284,  0.0373,  0.0733, -0.0032, -0.0159,  0.0227,-20.00,   1.0
2019/02/26 17:06:11.000, -25.932723195, -65.877039565, 1683.7012,  2,  9,  0.0281,  0.0369,  0.0718, -0.0029, -0.0153,  0.0223,-19.00,   1.0
2019/02/26 17:06:12.000, -25.932716192, -65.877048510, 1683.7178,  2,  9,  0.0277,  0.0365,  0.0704, -0.0025, -0.0148,  0.0220,-18.00,   1.0
2019/02/26 17:06:13.000, -25.932709011, -65.877057686, 1683.7713,  2,  9,  0.0274,  0.0362,  0.0690, -0.0021, -0.0142,  0.0217,-17.00,   1.0
2019/02/26 17:06:14.000, -25.932701002, -65.877066695, 1683.7581,  2,  9,  0.0271,  0.0358,  0.0676, -0.0016, -0.0137,  0.0214,-16.00,   1.0
2019/02/26 17:06:15.000, -25.932693522, -65.877075206, 1683.7047,  2,  9,  0.0268,  0.0354,  0.0663, -0.0010, -0.0132,  0.0211,-15.00,   1.0
2019/02/26 17:06:16.000, -25.932687683, -65.877085024, 1683.7266,  2,  9,  0.0270,  0.0356,  0.0671, -0.0017, -0.0137,  0.0212,-14.00,   1.0
2019/02/26 17:06:17.000, -25.932684194, -65.877095921, 1683.7169,  2,  9,  0.0272,  0.0358,  0.0680, -0.0022, -0.0141,  0.0214,-13.00,   1.0
2019/02/26 17:06:18.000, -25.932679503, -65.877105943, 1683.6440,  2,  9,  0.0274,  0.0361,  0.0690, -0.0026, -0.0147,  0.0216,-12.00,   1.0
2019/02/26 17:06:19.000, -25.932672889, -65.877114220, 1683.6354,  2,  9,  0.0276,  0.0363,  0.0700, -0.0030, -0.0152,  0.0217,-11.00,   1.0
2019/02/26 17:06:20.000, -25.932663864, -65.877120246, 1683.6780,  2,  9,  0.0278,  0.0366,  0.0712, -0.0033, -0.0157,  0.0220,-10.00,   1.0
2019/02/26 17:06:21.000, -25.932652946, -65.877123670, 1683.6464,  2,  9,  0.0280,  0.0368,  0.0723, -0.0037, -0.0163,  0.0222, -9.00,   1.0
2019/02/26 17:06:22.000, -25.932643038, -65.877128235, 1683.6193,  2,  9,  0.0283,  0.0371,  0.0735, -0.0040, -0.0168,  0.0224, -8.00,   1.0
2019/02/26 17:06:23.000, -25.932633724, -65.877133165, 1683.6564,  2,  9,  0.0285,  0.0374,  0.0748, -0.0043, -0.0174,  0.0227, -7.00,   1.0
2019/02/26 17:06:24.000, -25.932622509, -65.877134793, 1683.6577,  2,  9,  0.0288,  0.0377,  0.0761, -0.0046, -0.0180,  0.0230, -6.00,   1.0
2019/02/26 17:06:25.000, -25.932610981, -65.877134854, 1683.6353,  2,  9,  0.0291,  0.0381,  0.0775, -0.0049, -0.0185,  0.0232, -5.00,   1.0
2019/02/26 17:06:26.000, -25.932600130, -65.877133572, 1683.6460,  2,  9,  0.0293,  0.0384,  0.0789, -0.0051, -0.0191,  0.0235, -4.00,   1.0
2019/02/26 17:06:27.000, -25.932589321, -65.877132382, 1683.7137,  2,  9,  0.0297,  0.0388,  0.0803, -0.0054, -0.0197,  0.0238, -3.00,   1.0
2019/02/26 17:06:28.000, -25.932578535, -65.877131281, 1683.7183,  2,  9,  0.0300,  0.0392,  0.0818, -0.0057, -0.0203,  0.0241, -2.00,   1.0
2019/02/26 17:06:29.000, -25.932567192, -65.877129616, 1683.7009,  2,  9,  0.0303,  0.0395,  0.0833, -0.0060, -0.0209,  0.0245, -1.00,   1.0
2019/02/26 17:06:30.000, -25.932556849, -65.877126867, 1683.6755,  2,  9,  0.0241,  0.0322,  0.0531,  0.0036, -0.0083,  0.0177,  0.00,   1.0
2019/02/26 17:06:31.000, -25.932546726, -65.877121859, 1683.7382,  2,  9,  0.0301,  0.0394,  0.0819, -0.0059, -0.0207,  0.0239,-29.00,   1.1
2019/02/26 17:06:32.000, -25.932536688, -65.877116758, 1683.7251,  2,  9,  0.0297,  0.0389,  0.0802, -0.0056, -0.0201,  0.0235,-28.00,   1.1
2019/02/26 17:06:33.000, -25.932526088, -65.877112529, 1683.6934,  2,  9,  0.0293,  0.0384,  0.0785, -0.0054, -0.0195,  0.0231,-27.00,   1.1
2019/02/26 17:06:34.000, -25.932515246, -65.877108670, 1683.6934,  2,  9,  0.0289,  0.0379,  0.0769, -0.0051, -0.0189,  0.0227,-26.00,   1.1
2019/02/26 17:06:35.000, -25.932505122, -65.877102827, 1683.7272,  2,  9,  0.0285,  0.0374,  0.0752, -0.0049, -0.0183,  0.0223,-25.00,   1.1
2019/02/26 17:06:36.000, -25.932496448, -65.877094672, 1683.7456,  2,  9,  0.0281,  0.0370,  0.0736, -0.0046, -0.0177,  0.0220,-24.00,   1.1
2019/02/26 17:06:37.000, -25.932488864, -65.877084663, 1683.7239,  2,  9,  0.0277,  0.0365,  0.0720, -0.0043, -0.0171,  0.0216,-23.00,   1.1
2019/02/26 17:06:38.000, -25.932481528, -65.877074704, 1683.7241,  2,  9,  0.0274,  0.0361,  0.0704, -0.0040, -0.0165,  0.0213,-22.00,   1.1
2019/02/26 17:06:39.000, -25.932474829, -65.877064327, 1683.7790,  2,  9,  0.0270,  0.0356,  0.0689, -0.0038, -0.0160,  0.0209,-21.00,   1.1
2019/02/26 17:06:40.000, -25.932467448, -65.877054483, 1683.8054,  2,  9,  0.0267,  0.0352,  0.0673, -0.0035, -0.0154,  0.0206,-20.00,   1.1
2019/02/26 17:06:41.000, -25.932458294, -65.877046638, 1683.7984,  2,  9,  0.0263,  0.0348,  0.0658, -0.0032, -0.0148,  0.0202,-19.00,   1.1
2019/02/26 17:06:42.000, -25.932448479, -65.877039914, 1683.7907,  2,  9,  0.0260,  0.0344,  0.0643, -0.0028, -0.0143,  0.0199,-18.00,   1.1
2019/02/26 17:06:43.000, -25.932438870, -65.877031670, 1683.7886,  2,  9,  0.0257,  0.0340,  0.0629, -0.0025, -0.0137,  0.0196,-17.00,   1.1
2019/02/26 17:06:44.000, -25.932429972, -65.877022844, 1683.8291,  2,  9,  0.0254,  0.0337,  0.0615, -0.0021, -0.0132,  0.0192,-16.00,   1.1
2019/02/26 17:06:45.000, -25.932420544, -65.877015024, 1683.8600,  2,  9,  0.0251,  0.0333,  0.0601, -0.0017, -0.0126,  0.0189,-15.00,   1.1
2019/02/26 17:06:46.000, -25.932409564, -65.877009270, 1683.8477,  2,  9,  0.0253,  0.0335,  0.0611, -0.0021, -0.0131,  0.0191,-14.00,   1.1
2019/02/26 17:06:47.000, -25.932397833, -65.877004926, 1683.8226,  2,  9,  0.0255,  0.0338,  0.0621, -0.0025, -0.0136,  0.0193,-13.00,   1.1
2019/02/26 17:06:48.000, -25.932386124, -65.877000839, 1683.8443,  2,  9,  0.0257,  0.0340,  0.0633, -0.0029, -0.0141,  0.0196,-12.00,   1.1
2019/02/26 17:06:49.000, -25.932374734, -65.876996386, 1683.9142,  2,  9,  0.0259,  0.0343,  0.0645, -0.0032, -0.0147,  0.0198,-11.00,   1.1
2019/02/26 17:06:50.000, -25.932363806, -65.876990662, 1683.9673,  2,  9,  0.0262,  0.0346,  0.0657, -0.0035, -0.0152,  0.0200,-10.00,   1.1
2019/02/26 17:06:51.000, -25.932353275, -65.876983892, 1683.9824,  2,  9,  0.0264,  0.0349,  0.0671, -0.0038, -0.0158,  0.0203, -9.00,   1.1
2019/02/26 17:06:52.000, -25.932343084, -65.876975858, 1683.9850,  2,  9,  0.0267,  0.0352,  0.0684, -0.0041, -0.0163,  0.0206, -8.00,   1.1
2019/02/26 17:06:53.000, -25.932333127, -65.876968920, 1683.9743,  2,  9,  0.0270,  0.0356,  0.0698, -0.0044, -0.0169,  0.0209, -7.00,   1.1
2019/02/26 17:06:54.000, -25.932323640, -65.876962935, 1684.0036,  2,  9,  0.0273,  0.0359,  0.0713, -0.0047, -0.0175,  0.0212, -6.00,   1.1
2019/02/26 17:06:55.000, -25.932313641, -65.876956923, 1684.0434,  2,  9,  0.0276,  0.0363,  0.0728, -0.0049, -0.0181,  0.0215, -5.00,   1.1
2019/02/26 17:06:56.000, -25.932303629, -65.876949524, 1684.0892,  2,  9,  0.0279,  0.0367,  0.0743, -0.0052, -0.0187,  0.0218, -4.00,   1.1
2019/02/26 17:06:57.000, -25.932293037, -65.876943252, 1684.0775,  2,  9,  0.0282,  0.0370,  0.0759, -0.0055, -0.0192,  0.0222, -3.00,   1.1
2019/02/26 17:06:58.000, -25.932281889, -65.876939313, 1684.0567,  2,  9,  0.0286,  0.0374,  0.0774, -0.0057, -0.0198,  0.0225, -2.00,   1.1
2019/02/26 17:06:59.000, -25.932270606, -65.876937158, 1684.0740,  2,  9,  0.0289,  0.0379,  0.0791, -0.0060, -0.0204,  0.0229, -1.00,   1.1
2019/02/26 17:07:00.000, -25.932258839, -65.876934522, 1684.0822,  2,  9,  0.0224,  0.0301,  0.0468,  0.0034, -0.0076,  0.0157,  0.00,   1.1
2019/02/26 17:07:01.000, -25.932247614, -65.876930593, 1684.0941,  2,  9,  0.0287,  0.0378,  0.0780, -0.0059, -0.0203,  0.0224,-29.00,   1.1
2019/02/26 17:07:02.000, -25.932237546, -65.876923435, 1684.1244,  2,  9,  0.0283,  0.0372,  0.0762, -0.0057, -0.0197,  0.0220,-28.00,   1.1
2019/02/26 17:07:03.000, -25.932228812, -65.876914254, 1684.1281,  2,  9,  0.0279,  0.0367,  0.0745, -0.0054, -0.0191,  0.0216,-27.00,   1.1
2019/02/26 17:07:04.000, -25.932220329, -65.876905044, 1684.1779,  2,  9,  0.0275,  0.0362,  0.0727, -0.0052, -0.0185,  0.0212,-26.00,   1.1
2019/02/26 17:07:05.000, -25.932211163, -65.876897551, 1684.2249,  2,  9,  0.0271,  0.0357,  0.0710, -0.0049, -0.0179,  0.0208,-25.00,   1.1
2019/02/26 17:07:06.000, -25.932200014, -65.876896300, 1684.2123,  2,  9,  0.0267,  0.0353,  0.0694, -0.0046, -0.0173,  0.0204,-24.00,   1.1
2019/02/26 17:07:07.000, -25.932188197, -65.876897960, 1684.1617,  2,  9,  0.0263,  0.0348,  0.0677, -0.0044, -0.0167,  0.0201,-23.00,   1.1
2019/02/26 17:07:08.000, -25.932176340, -65.876901018, 1684.1336,  2,  9,  0.0260,  0.0344,  0.0660, -0.0041, -0.0161,  0.0197,-22.00,   1.1
2019/02/26 17:07:09.000, -25.932164760, -65.876904721, 1684.1152,  2,  9,  0.0256,  0.0339,  0.0644, -0.0038, -0.0155,  0.0193,-21.00,   1.1
2019/02/26 17:07:10.000, -25.932153165, -65.876907015, 1684.1038,  2,  9,  0.0252,  0.0335,  0.0628, -0.0035, -0.0149,  0.0190,-20.00,   1.1
2019/02/26 17:07:11.000, -25.932141605, -65.876908408, 1684.0281,  2,  9,  0.0249,  0.0331,  0.0613, -0.0033, -0.0143,  0.0186,-19.00,   1.1
2019/02/26 17:07:12.000, -25.932130524, -65.876910647, 1683.9134,  2,  9,  0.0246,  0.0327,  0.0597, -0.0029, -0.0138,  0.0183,-18.00,   1.1
2019/02/26 17:07:13.000, -25.932119113, -65.876913789, 1683.8473,  2,  9,  0.0242,  0.0323,  0.0582, -0.0026, -0.0132,  0.0179,-17.00,   1.1
2019/02/26 17:07:14.000, -25.932109615, -65.876920446, 1683.8035,  2,  9,  0.0239,  0.0319,  0.0568, -0.0023, -0.0126,  0.0176,-16.00,   1.1
2019/02/26 17:07:15.000, -25.932103715, -65.876932375, 1683.7174,  2,  9,  0.0236,  0.0316,  0.0553, -0.0019, -0.0121,  0.0173,-15.00,   1.1
2019/02/26 17:07:16.000, -25.932097060, -65.876944484, 1683.6856,  2,  9,  0.0238,  0.0318,  0.0565, -0.0023, -0.0126,  0.0175,-14.00,   1.1
2019/02/26 17:07:17.000, -25.932088504, -65.876954168, 1683.6266,  2,  9,  0.0241,  0.0321,  0.0577, -0.0026, -0.0131,  0.0178,-13.00,   1.1
2019/02/26 17:07:18.000, -25.932078215, -65.876962072, 1683.6448,  2,  9,  0.0243,  0.0324,  0.0589, -0.0030, -0.0137,  0.0180,-12.00,   1.1
2019/02/26 17:07:19.000, -25.932067817, -65.876968565, 1683.6962,  2,  9,  0.0246,  0.0327,  0.0603, -0.0033, -0.0142,  0.0183,-11.00,   1.1
2019/02/26 17:07:20.000, -25.932057452, -65.876973402, 1683.8104,  2,  9,  0.0248,  0.0330,  0.0616, -0.0036, -0.0148,  0.0186,-10.00,   1.1
2019/02/26 17:07:21.000, -25.932046614, -65.876972270, 1683.8463,  2,  9,  0.0251,  0.0333,  0.0631, -0.0038, -0.0153,  0.0189, -9.00,   1.1
2019/02/26 17:07:22.000, -25.932036438, -65.876969882, 1683.8796,  2,  9,  0.0254,  0.0337,  0.0645, -0.0041, -0.0159,  0.0192, -8.00,   1.1
2019/02/26 17:07:23.000, -25.932026489, -65.876973809, 1683.9297,  2,  9,  0.0257,  0.0340,  0.0661, -0.0044, -0.0165,  0.0195, -7.00,   1.2
2019/02/26 17:07:24.000, -25.932018445, -65.876982224, 1684.0348,  2,  9,  0.0260,  0.0344,  0.0676, -0.0047, -0.0171,  0.0198, -6.00,   1.2
2019/02/26 17:07:25.000, -25.932012616, -65.876992761, 1684.1071,  2,  9,  0.0264,  0.0348,  0.0692, -0.0049, -0.0176,  0.0202, -5.00,   1.2
2019/02/26 17:07:26.000, -25.932009841, -65.877002701, 1684.1634,  2,  9,  0.0267,  0.0352,  0.0708, -0.0052, -0.0182,  0.0205, -4.00,   1.2
2019/02/26 17:07:27.000, -25.932011223, -65.877013090, 1684.2771,  2,  9,  0.0271,  0.0356,  0.0725, -0.0054, -0.0188,  0.0209, -3.00,   1.2
2019/02/26 17:07:28.000, -25.932017022, -65.877023254, 1684.2818,  2,  9,  0.0274,  0.0361,  0.0742, -0.0057, -0.0194,  0.0213, -2.00,   1.2
2019/02/26 17:07:29.000, -25.932025078, -65.877032810, 1684.2664,  2,  9,  0.0278,  0.0365,  0.0759, -0.0059, -0.0200,  0.0217, -1.00,   1.2
2019/02/26 17:07:30.000, -25.932033052, -65.877042423, 1684.2079,  2,  9,  0.0209,  0.0284,  0.0418,  0.0032, -0.0069,  0.0141,  0.00,   1.2
2019/02/26 17:07:31.000, -25.932040193, -65.877052904, 1684.1763,  2,  9,  0.0276,  0.0364,  0.0750, -0.0059, -0.0199,  0.0213,-29.00,   1.2
2019/02/26 17:07:32.000, -25.932046442, -65.877063896, 1684.1848,  2,  9,  0.0272,  0.0359,  0.0732, -0.0056, -0.0193,  0.0209,-28.00,   1.2
2019/02/26 17:07:33.000, -25.932053612, -65.877074060, 1684.1470,  2,  9,  0.0268,  0.0354,  0.0714, -0.0054, -0.0187,  0.0205,-27.00,   1.2
2019/02/26 17:07:34.000, -25.932060845, -65.877084954, 1684.1956,  2,  9,  0.0264,  0.0349,  0.0696, -0.0051, -0.0181,  0.0201,-26.00,   1.2
2019/02/26 17:07:35.000, -25.932067288, -65.877095956, 1684.2173,  2,  9,  0.0260,  0.0344,  0.0679, -0.0049, -0.0175,  0.0197,-25.00,   1.2
2019/02/26 17:07:36.000, -25.932074073, -65.877106882, 1684.1914,  2,  9,  0.0256,  0.0339,  0.0661, -0.0046, -0.0169,  0.0193,-24.00,   1.2
2019/02/26 17:07:37.000, -25.932081055, -65.877117199, 1684.2207,  2,  9,  0.0252,  0.0334,  0.0644, -0.0044, -0.0163,  0.0189,-23.00,   1.2
2019/02/26 17:07:38.000, -25.932087015, -65.877128269, 1684.2939,  2,  9,  0.0248,  0.0330,  0.0627, -0.0041, -0.0157,  0.0185,-22.00,   1.2
2019/02/26 17:07:39.000, -25.932093173, -65.877139177, 1684.3587,  2,  9,  0.0244,  0.0325,  0.0610, -0.0038, -0.0151,  0.0181,-21.00,   1.2
2019/02/26 17:07:40.000, -25.932100757, -65.877149332, 1684.4010,  2,  9,  0.0241,  0.0321,  0.0594, -0.0036, -0.0145,  0.0177,-20.00,   1.2
2019/02/26 17:07:41.000, -25.932109051, -65.877158569, 1684.3910,  2,  9,  0.0237,  0.0317,  0.0578, -0.0033, -0.0139,  0.0174,-19.00,   1.2
2019/02/26 17:07:42.000, -25.932117554, -65.877167926, 1684.3887,  2,  9,  0.0234,  0.0312,  0.0562, -0.0030, -0.0133,  0.0170,-18.00,   1.2
2019/02/26 17:07:43.000, -25.932125623, -65.877177226, 1684.4146,  2,  9,  0.0230,  0.0309,  0.0546, -0.0027, -0.0127,  0.0167,-17.00,   1.2
2019/02/26 17:07:44.000, -25.932133315, -65.877186899, 1684.4461,  2,  9,  0.0227,  0.0305,  0.0531, -0.0023, -0.0122,  0.0163,-16.00,   1.2
2019/02/26 17:07:45.000, -25.932138978, -65.877198299, 1684.4455,  2,  9,  0.0224,  0.0301,  0.0516, -0.0020, -0.0116,  0.0160,-15.00,   1.1
2019/02/26 17:07:46.000, -25.932142832, -65.877210521, 1684.3994,  2,  9,  0.0226,  0.0304,  0.0529, -0.0023, -0.0121,  0.0163,-14.00,   1.1
2019/02/26 17:07:47.000, -25.932145817, -65.877222911, 1684.3849,  2,  9,  0.0229,  0.0307,  0.0542, -0.0027, -0.0127,  0.0165,-13.00,   1.1
2019/02/26 17:07:48.000, -25.932148602, -65.877235541, 1684.4118,  2,  9,  0.0232,  0.0310,  0.0556, -0.0030, -0.0132,  0.0168,-12.00,   1.1
2019/02/26 17:07:49.000, -25.932151761, -65.877247919, 1684.4189,  2,  9,  0.0234,  0.0313,  0.0570, -0.0033, -0.0138,  0.0171,-11.00,   1.1
2019/02/26 17:07:50.000, -25.932155277, -65.877260615, 1684.3896,  2,  9,  0.0237,  0.0317,  0.0585, -0.0036, -0.0144,  0.0174,-10.00,   1.1
2019/02/26 17:07:51.000, -25.932157766, -65.877273080, 1684.3509,  2,  9,  0.0240,  0.0320,  0.0600, -0.0038, -0.0149,  0.0178, -9.00,   1.1
2019/02/26 17:07:52.000, -25.932159109, -65.877285643, 1684.3776,  2,  9,  0.0243,  0.0324,  0.0616, -0.0041, -0.0155,  0.0181, -8.00,   1.1
2019/02/26 17:07:53.000, -25.932160967, -65.877298020, 1684.3860,  2,  9,  0.0247,  0.0328,  0.0632, -0.0044, -0.0161,  0.0184, -7.00,   1.1
2019/02/26 17:07:54.000, -25.932164289, -65.877310334, 1684.3891,  2,  9,  0.0250,  0.0332,  0.0648, -0.0046, -0.0167,  0.0188, -6.00,   1.1
2019/02/26 17:07:55.000, -25.932168311, -65.877322758, 1684.3762,  2,  9,  0.0254,  0.0336,  0.0665, -0.0049, -0.0173,  0.0192, -5.00,   1.1
2019/02/26 17:07:56.000, -25.932172415, -65.877334607, 1684.3568,  2,  9,  0.0257,  0.0340,  0.0682, -0.0051, -0.0179,  0.0195, -4.00,   1.1
2019/02/26 17:07:57.000, -25.932177321, -65.877346750, 1684.3697,  2,  9,  0.0261,  0.0345,  0.0699, -0.0054, -0.0185,  0.0199, -3.00,   1.1
2019/02/26 17:07:58.000, -25.932183147, -65.877357667, 1684.3886,  2,  9,  0.0265,  0.0349,  0.0716, -0.0056, -0.0191,  0.0203, -2.00,   1.1
2019/02/26 17:07:59.000, -25.932190755, -65.877367522, 1684.3819,  2,  9,  0.0269,  0.0354,  0.0734, -0.0058, -0.0197,  0.0207, -1.00,   1.1
2019/02/26 17:08:00.000, -25.932199117, -65.877376350, 1684.3523,  2,  9,  0.0197,  0.0270,  0.0377,  0.0031, -0.0062,  0.0128,  0.00,   1.1
2019/02/26 17:08:01.000, -25.932207194, -65.877385394, 1684.3337,  2,  9,  0.0267,  0.0353,  0.0727, -0.0058, -0.0196,  0.0204,-29.00,   1.1
2019/02/26 17:08:02.000, -25.932215913, -65.877394132, 1684.3592,  2,  9,  0.0263,  0.0348,  0.0709, -0.0056, -0.0189,  0.0200,-28.00,   1.1
2019/02/26 17:08:03.000, -25.932224742, -65.877402701, 1684.3868,  2,  9,  0.0258,  0.0342,  0.0691, -0.0053, -0.0183,  0.0196,-27.00,   1.1
2019/02/26 17:08:04.000, -25.932233682, -65.877410958, 1684.3398,  2,  9,  0.0254,  0.0337,  0.0672, -0.0051, -0.0177,  0.0192,-26.00,   1.1
2019/02/26 17:08:05.000, -25.932241529, -65.877420292, 1684.2952,  2,  9,  0.0250,  0.0332,  0.0654, -0.0048, -0.0171,  0.0187,-25.00,   1.1
2019/02/26 17:08:06.000, -25.932249175, -65.877430296, 1684.3030,  2,  9,  0.0246,  0.0327,  0.0636, -0.0046, -0.0165,  0.0183,-24.00,   1.1
2019/02/26 17:08:07.000, -25.932257095, -65.877440082, 1684.3347,  2,  9,  0.0242,  0.0323,  0.0619, -0.0043, -0.0159,  0.0179,-23.00,   1.1
2019/02/26 17:08:08.000, -25.932264802, -65.877449767, 1684.3182,  2,  9,  0.0238,  0.0318,  0.0601, -0.0041, -0.0153,  0.0175,-22.00,   1.1
2019/02/26 17:08:09.000, -25.932272564, -65.877459824, 1684.2832,  2,  9,  0.0234,  0.0313,  0.0584, -0.0038, -0.0147,  0.0171,-21.00,   1.1
2019/02/26 17:08:10.000, -25.932280374, -65.877469047, 1684.2650,  2,  9,  0.0231,  0.0309,  0.0567, -0.0035, -0.0141,  0.0168,-20.00,   1.1
2019/02/26 17:08:11.000, -25.932288857, -65.877478315, 1684.2781,  2,  9,  0.0227,  0.0305,  0.0550, -0.0032, -0.0135,  0.0164,-19.00,   1.1
2019/02/26 17:08:12.000, -25.932298015, -65.877487287, 1684.2960,  2,  9,  0.0224,  0.0300,  0.0534, -0.0030, -0.0129,  0.0160,-18.00,   1.1
2019/02/26 17:08:13.000, -25.932306682, -65.877496721, 1684.2643,  2,  9,  0.0220,  0.0296,  0.0518, -0.0026, -0.0123,  0.0157,-17.00,   1.1
2019/02/26 17:08:14.000, -25.932313911, -65.877508066, 1684.2418,  2,  9,  0.0217,  0.0293,  0.0502, -0.0023, -0.0118,  0.0153,-16.00,   1.1
2019/02/26 17:08:15.000, -25.932319672, -65.877519487, 1684.1985,  2,  9,  0.0214,  0.0289,  0.0487, -0.0020, -0.0112,  0.0150,-15.00,   1.1
2019/02/26 17:08:16.000, -25.932325673, -65.877530766, 1684.2074,  2,  9,  0.0216,  0.0292,  0.0500, -0.0023, -0.0117,  0.0152,-14.00,   1.1
2019/02/26 17:08:17.000, -25.932332827, -65.877540925, 1684.2281,  2,  9,  0.0219,  0.0295,  0.0514, -0.0026, -0.0123,  0.0155,-13.00,   1.1
2019/02/26 17:08:18.000, -25.932338695, -65.877552087, 1684.1963,  2,  9,  0.0222,  0.0298,  0.0529, -0.0029, -0.0129,  0.0159,-12.00,   1.0
2019/02/26 17:08:19.000, -25.932343787, -65.877563652, 1684.1423,  2,  9,  0.0225,  0.0302,  0.0544, -0.0032, -0.0134,  0.0162,-11.00,   1.0
2019/02/26 17:08:20.000, -25.932349883, -65.877575001, 1684.1393,  2,  9,  0.0228,  0.0305,  0.0560, -0.0035, -0.0140,  0.0165,-10.00,   1.0
2019/02/26 17:08:21.000, -25.932355981, -65.877585927, 1684.1374,  2,  9,  0.0231,  0.0309,  0.0576, -0.0038, -0.0146,  0.0169, -9.00,   1.0
2019/02/26 17:08:22.000, -25.932362572, -65.877597443, 1684.1336,  2,  9,  0.0234,  0.0313,  0.0592, -0.0040, -0.0152,  0.0172, -8.00,   1.0
2019/02/26 17:08:23.000, -25.932369129, -65.877608828, 1684.1179,  2,  9,  0.0238,  0.0317,  0.0609, -0.0043, -0.0157,  0.0176, -7.00,   1.0
2019/02/26 17:08:24.000, -25.932376248, -65.877620387, 1684.0691,  2,  9,  0.0241,  0.0321,  0.0626, -0.0045, -0.0163,  0.0180, -6.00,   1.0
2019/02/26 17:08:25.000, -25.932382782, -65.877631968, 1684.0060,  2,  9,  0.0245,  0.0326,  0.0643, -0.0048, -0.0169,  0.0184, -5.00,   1.0
2019/02/26 17:08:26.000, -25.932389300, -65.877643033, 1683.9933,  2,  9,  0.0249,  0.0330,  0.0661, -0.0050, -0.0175,  0.0188, -4.00,   1.0
2019/02/26 17:08:27.000, -25.932395997, -65.877653800, 1683.9922,  2,  9,  0.0253,  0.0335,  0.0679, -0.0053, -0.0181,  0.0192, -3.00,   1.0
2019/02/26 17:08:28.000, -25.932402689, -65.877664814, 1683.9752,  2,  9,  0.0257,  0.0339,  0.0697, -0.0055, -0.0187,  0.0196, -2.00,   1.0
2019/02/26 17:08:29.000, -25.932409582, -65.877676058, 1683.9204,  2,  9,  0.0261,  0.0344,  0.0715, -0.0057, -0.0193,  0.0200, -1.00,   1.0
2019/02/26 17:08:30.000, -25.932415178, -65.877687218, 1683.8675,  2,  9,  0.0186,  0.0257,  0.0343,  0.0031, -0.0056,  0.0117,  0.00,   1.0
2019/02/26 17:08:31.000, -25.932420592, -65.877698413, 1683.8387,  2,  9,  0.0259,  0.0344,  0.0710, -0.0057, -0.0192,  0.0198,-29.00,   1.0
2019/02/26 17:08:32.000, -25.932426009, -65.877709257, 1683.8434,  2,  9,  0.0255,  0.0338,  0.0691, -0.0055, -0.0186,  0.0193,-28.00,   1.0
2019/02/26 17:08:33.000, -25.932432318, -65.877719501, 1683.7906,  2,  9,  0.0250,  0.0333,  0.0672, -0.0052, -0.0180,  0.0189,-27.00,   1.0
2019/02/26 17:08:34.000, -25.932439499, -65.877728902, 1683.6996,  2,  9,  0.0246,  0.0328,  0.0653, -0.0050, -0.0174,  0.0184,-26.00,   1.0
2019/02/26 17:08:35.000, -25.932447693, -65.877737690, 1683.6614,  2,  9,  0.0242,  0.0323,  0.0635, -0.0047, -0.0168,  0.0180,-25.00,   1.0
2019/02/26 17:08:36.000, -25.932456309, -65.877745539, 1683.6683,  2,  9,  0.0238,  0.0318,  0.0617, -0.0045, -0.0162,  0.0176,-24.00,   1.0
2019/02/26 17:08:37.000, -25.932464841, -65.877754484, 1683.6074,  2,  9,  0.0234,  0.0313,  0.0599, -0.0042, -0.0156,  0.0172,-23.00,   1.0
2019/02/26 17:08:38.000, -25.932471844, -65.877764100, 1683.5192,  2,  9,  0.0230,  0.0308,  0.0581, -0.0040, -0.0150,  0.0168,-22.00,   1.0
2019/02/26 17:08:39.000, -25.932478712, -65.877774067, 1683.4926,  2,  9,  0.0226,  0.0303,  0.0563, -0.0037, -0.0144,  0.0164,-21.00,   1.0
2019/02/26 17:08:40.000, -25.932485623, -65.877783709, 1683.4582,  2,  9,  0.0222,  0.0299,  0.0546, -0.0035, -0.0138,  0.0160,-20.00,   1.0
2019/02/26 17:08:41.000, -25.932493164, -65.877793832, 1683.4183,  2,  9,  0.0218,  0.0294,  0.0529, -0.0032, -0.0132,  0.0156,-19.00,   1.0
2019/02/26 17:08:42.000, -25.932501179, -65.877803505, 1683.3707,  2,  9,  0.0215,  0.0290,  0.0512, -0.0029, -0.0126,  0.0152,-18.00,   1.0
2019/02/26 17:08:43.000, -25.932508667, -65.877813242, 1683.2740,  2,  9,  0.0211,  0.0286,  0.0495, -0.0026, -0.0120,  0.0148,-17.00,   1.0
2019/02/26 17:08:44.000, -25.932516140, -65.877822725, 1683.2267,  2,  9,  0.0208,  0.0282,  0.0479, -0.0023, -0.0114,  0.0145,-16.00,   1.0
2019/02/26 17:08:45.000, -25.932522910, -65.877832287, 1683.1992,  2,  9,  0.0205,  0.0278,  0.0463, -0.0019, -0.0109,  0.0141,-15.00,   1.0
2019/02/26 17:08:46.000, -25.932529617, -65.877841723, 1683.1955,  2,  9,  0.0207,  0.0281,  0.0477, -0.0023, -0.0114,  0.0144,-14.00,   1.0
2019/02/26 17:08:47.000, -25.932536937, -65.877850592, 1683.1483,  2,  9,  0.0210,  0.0285,  0.0492, -0.0026, -0.0120,  0.0147,-13.00,   1.0
2019/02/26 17:08:48.000, -25.932543072, -65.877860039, 1683.1110,  2,  9,  0.0213,  0.0288,  0.0508, -0.0029, -0.0125,  0.0151,-12.00,   1.0
2019/02/26 17:08:49.000, -25.932549476, -65.877869280, 1683.1016,  2,  9,  0.0216,  0.0292,  0.0524, -0.0032, -0.0131,  0.0154,-11.00,   1.0
2019/02/26 17:08:50.000, -25.932556430, -65.877878257, 1683.0834,  2,  9,  0.0219,  0.0296,  0.0540, -0.0034, -0.0137,  0.0158,-10.00,   1.0
2019/02/26 17:08:51.000, -25.932563158, -65.877886976, 1683.0019,  2,  9,  0.0223,  0.0300,  0.0557, -0.0037, -0.0143,  0.0161, -9.00,   1.0
2019/02/26 17:08:52.000, -25.932569409, -65.877895454, 1682.9989,  2,  9,  0.0226,  0.0304,  0.0574, -0.0040, -0.0148,  0.0165, -8.00,   1.0
2019/02/26 17:08:53.000, -25.932574704, -65.877904257, 1682.9745,  2,  9,  0.0230,  0.0308,  0.0591, -0.0042, -0.0154,  0.0169, -7.00,   1.0
2019/02/26 17:08:54.000, -25.932576971, -65.877914506, 1682.9252,  2,  9,  0.0234,  0.0312,  0.0608, -0.0045, -0.0160,  0.0173, -6.00,   1.0
2019/02/26 17:08:55.000, -25.932583083, -65.877923641, 1682.8373,  2,  9,  0.0237,  0.0317,  0.0626, -0.0047, -0.0166,  0.0177, -5.00,   1.0
2019/02/26 17:08:56.000, -25.932589529, -65.877932450, 1682.8111,  2,  9,  0.0241,  0.0321,  0.0644, -0.0049, -0.0172,  0.0181, -4.00,   1.0
2019/02/26 17:08:57.000, -25.932596458, -65.877940485, 1682.7388,  2,  9,  0.0245,  0.0326,  0.0662, -0.0052, -0.0178,  0.0185, -3.00,   1.0
2019/02/26 17:08:58.000, -25.932603161, -65.877948742, 1682.6447,  2,  9,  0.0250,  0.0331,  0.0681, -0.0054, -0.0184,  0.0190, -2.00,   1.0
2019/02/26 17:08:59.000, -25.932610329, -65.877957534, 1682.6115,  2,  9,  0.0254,  0.0336,  0.0699, -0.0056, -0.0190,  0.0194, -1.00,   1.0
2019/02/26 17:09:00.000, -25.932616552, -65.877966852, 1682.5716,  2,  9,  0.0176,  0.0246,  0.0315,  0.0030, -0.0051,  0.0108,  0.00,   1.0
2019/02/26 17:09:01.000, -25.932622810, -65.877975472, 1682.4478,  2,  9,  0.0253,  0.0336,  0.0695, -0.0056, -0.0190,  0.0192,-29.00,   1.0
2019/02/26 17:09:02.000, -25.932628555, -65.877984682, 1682.3382,  2,  9,  0.0248,  0.0330,  0.0676, -0.0054, -0.0183,  0.0188,-28.00,   1.0
2019/02/26 17:09:03.000, -25.932634330, -65.877992976, 1682.2515,  2,  9,  0.0244,  0.0325,  0.0657, -0.0051, -0.0177,  0.0183,-27.00,   1.0
2019/02/26 17:09:04.000, -25.932635601, -65.877995695, 1682.2291,  2,  9,  0.0239,  0.0319,  0.0638, -0.0049, -0.0171,  0.0179,-26.00,   1.0
2019/02/26 17:09:05.000, -25.932630144, -65.877989730, 1682.2978,  2,  9,  0.0235,  0.0314,  0.0620, -0.0046, -0.0165,  0.0174,-25.00,   1.0
2019/02/26 17:09:06.000, -25.932624397, -65.877980801, 1682.4063,  2,  9,  0.0230,  0.0309,  0.0601, -0.0044, -0.0159,  0.0170,-24.00,   1.0
2019/02/26 17:09:07.000, -25.932622636, -65.877970460, 1682.4565,  2,  9,  0.0226,  0.0304,  0.0583, -0.0042, -0.0153,  0.0166,-23.00,   1.0
2019/02/26 17:09:08.000, -25.932621124, -65.877959224, 1682.5408,  2,  9,  0.0222,  0.0299,  0.0564, -0.0039, -0.0147,  0.0161,-22.00,   1.0
2019/02/26 17:09:09.000, -25.932612549, -65.877951851, 1682.6247,  2,  9,  0.0218,  0.0295,  0.0546, -0.0036, -0.0141,  0.0157,-21.00,   1.0
2019/02/26 17:09:10.000, -25.932601921, -65.877949062, 1682.6461,  2,  9,  0.0214,  0.0290,  0.0529, -0.0034, -0.0135,  0.0153,-20.00,   1.0
2019/02/26 17:09:11.000, -25.932590775, -65.877946243, 1682.7137,  2,  9,  0.0211,  0.0285,  0.0511, -0.0031, -0.0129,  0.0149,-19.00,   1.0
2019/02/26 17:09:12.000, -25.932579430, -65.877942485, 1682.7925,  2,  9,  0.0207,  0.0281,  0.0494, -0.0028, -0.0123,  0.0145,-18.00,   1.0
2019/02/26 17:09:13.000, -25.932569415, -65.877935949, 1682.7970,  2,  9,  0.0203,  0.0277,  0.0477, -0.0025, -0.0117,  0.0142,-17.00,   1.0
2019/02/26 17:09:14.000, -25.932561800, -65.877926991, 1682.8828,  2,  9,  0.0200,  0.0273,  0.0460, -0.0022, -0.0111,  0.0138,-16.00,   1.0
2019/02/26 17:09:15.000, -25.932553991, -65.877917741, 1682.9822,  2,  9,  0.0197,  0.0269,  0.0444, -0.0019, -0.0105,  0.0134,-15.00,   1.0
2019/02/26 17:09:16.000, -25.932546320, -65.877908968, 1683.0072,  2,  9,  0.0199,  0.0272,  0.0459, -0.0022, -0.0111,  0.0138,-14.00,   1.0
2019/02/26 17:09:17.000, -25.932538766, -65.877900413, 1683.0229,  2,  9,  0.0202,  0.0276,  0.0474, -0.0025, -0.0117,  0.0141,-13.00,   1.0
2019/02/26 17:09:18.000, -25.932531058, -65.877891700, 1683.0936,  2,  9,  0.0205,  0.0280,  0.0491, -0.0028, -0.0122,  0.0144,-12.00,   1.0
2019/02/26 17:09:19.000, -25.932523959, -65.877881826, 1683.1257,  2,  9,  0.0209,  0.0283,  0.0507, -0.0031, -0.0128,  0.0148,-11.00,   1.0
2019/02/26 17:09:20.000, -25.932517118, -65.877871733, 1683.1330,  2,  9,  0.0212,  0.0287,  0.0524, -0.0034, -0.0134,  0.0152,-10.00,   1.0
2019/02/26 17:09:21.000, -25.932509941, -65.877862495, 1683.1509,  2,  9,  0.0216,  0.0291,  0.0541, -0.0036, -0.0140,  0.0156, -9.00,   1.0
2019/02/26 17:09:22.000, -25.932502746, -65.877852736, 1683.2080,  2,  9,  0.0219,  0.0296,  0.0559, -0.0039, -0.0146,  0.0159, -8.00,   1.1
2019/02/26 17:09:23.000, -25.932495970, -65.877842020, 1683.2907,  2,  9,  0.0223,  0.0300,  0.0576, -0.0041, -0.0152,  0.0164, -7.00,   1.1
2019/02/26 17:09:24.000, -25.932488342, -65.877831959, 1683.3234,  2,  9,  0.0227,  0.0305,  0.0594, -0.0044, -0.0157,  0.0168, -6.00,   1.1
2019/02/26 17:09:25.000, -25.932479868, -65.877823355, 1683.3472,  2,  9,  0.0231,  0.0309,  0.0612, -0.0046, -0.0163,  0.0172, -5.00,   1.1
2019/02/26 17:09:26.000, -25.932471784, -65.877814930, 1683.4256,  2,  9,  0.0235,  0.0314,  0.0631, -0.0048, -0.0169,  0.0176, -4.00,   1.1
2019/02/26 17:09:27.000, -25.932463459, -65.877805873, 1683.5216,  2,  9,  0.0239,  0.0319,  0.0649, -0.0051, -0.0175,  0.0180, -3.00,   1.1
2019/02/26 17:09:28.000, -25.932455332, -65.877796616, 1683.5473,  2,  9,  0.0243,  0.0324,  0.0668, -0.0053, -0.0181,  0.0185, -2.00,   1.1
2019/02/26 17:09:29.000, -25.932448115, -65.877786755, 1683.5611,  2,  9,  0.0248,  0.0329,  0.0687, -0.0055, -0.0187,  0.0189, -1.00,   1.1
2019/02/26 17:09:30.000, -25.932441402, -65.877776513, 1683.6306,  2,  9,  0.0168,  0.0237,  0.0291,  0.0030, -0.0047,  0.0101,  0.00,   1.1
2019/02/26 17:09:31.000, -25.932434365, -65.877766588, 1683.6989,  2,  9,  0.0247,  0.0329,  0.0684, -0.0055, -0.0187,  0.0188,-29.00,   1.1
2019/02/26 17:09:32.000, -25.932426730, -65.877756941, 1683.7444,  2,  9,  0.0242,  0.0323,  0.0664, -0.0053, -0.0181,  0.0183,-28.00,   1.1
2019/02/26 17:09:33.000, -25.932418258, -65.877749071, 1683.7340,  2,  9,  0.0237,  0.0317,  0.0645, -0.0050, -0.0175,  0.0178,-27.00,   1.1
2019/02/26 17:09:34.000, -25.932408729, -65.877742238, 1683.8068,  2,  9,  0.0233,  0.0312,  0.0626, -0.0048, -0.0168,  0.0174,-26.00,   1.1
2019/02/26 17:09:35.000, -25.932399307, -65.877734382, 1683.8634,  2,  9,  0.0229,  0.0307,  0.0607, -0.0045, -0.0162,  0.0169,-25.00,   1.1
2019/02/26 17:09:36.000, -25.932390365, -65.877726458, 1683.8603,  2,  9,  0.0224,  0.0302,  0.0588, -0.0043, -0.0156,  0.0165,-24.00,   1.1
2019/02/26 17:09:37.000, -25.932381998, -65.877717811, 1683.8907,  2,  9,  0.0220,  0.0297,  0.0570, -0.0041, -0.0150,  0.0161,-23.00,   1.1
2019/02/26 17:09:38.000, -25.932373254, -65.877709010, 1683.9532,  2,  9,  0.0216,  0.0292,  0.0551, -0.0038, -0.0144,  0.0156,-22.00,   1.1
2019/02/26 17:09:39.000, -25.932364553, -65.877700035, 1683.9737,  2,  9,  0.0212,  0.0287,  0.0533, -0.0036, -0.0138,  0.0152,-21.00,   1.1
2019/02/26 17:09:40.000, -25.932356396, -65.877690269, 1683.9507,  2,  9,  0.0208,  0.0282,  0.0515, -0.0033, -0.0132,  0.0148,-20.00,   1.1
2019/02/26 17:09:41.000, -25.932349572, -65.877680333, 1683.9304,  2,  9,  0.0204,  0.0278,  0.0497, -0.0030, -0.0126,  0.0144,-19.00,   1.1
2019/02/26 17:09:42.000, -25.932342338, -65.877669758, 1683.9769,  2,  9,  0.0200,  0.0273,  0.0479, -0.0028, -0.0120,  0.0140,-18.00,   1.1
2019/02/26 17:09:43.000, -25.932335430, -65.877658800, 1683.9845,  2,  9,  0.0196,  0.0269,  0.0462, -0.0025, -0.0114,  0.0136,-17.00,   1.1
