     2.11           OBSERVATION DATA    M (MIXED)           RINEX VERSION / TYPE
teqc  2012Jun6                          20190301 21:13:40UTCPGM / RUN BY / DATE
MSXP|IAx86-PII|bcc32 5.0|MSWin95->XP|486/DX+                COMMENT
BIT 2 OF LLI FLAGS DATA COLLECTED UNDER A/S CONDITION       COMMENT
-Unknown-                                                   MARKER NAME
-Unknown-           -Unknown-                               OBSERVER / AGENCY
1533847             LEICA               4.51/6.112          REC # / TYPE / VERS
                    LEIAS10         NONE                    ANT # / TYPE
  2347208.2058 -5240698.4919 -2772508.3480                  APPROX POSITION XYZ
        1.8760        0.0000        0.0000                  ANTENNA: DELTA H/E/N
     1     1                                                WAVELENGTH FACT L1/2
     6    L1    L2    C1    P2    S1    S2                  # / TYPES OF OBSERV
     1.0000                                                 INTERVAL
MS01                                                        COMMENT
Project creator:                                            COMMENT
 SNR is mapped to RINEX snr flag value [0-9]                COMMENT
  L1 & L2: min(max(int(snr_dBHz/6), 0), 9)                  COMMENT
  2019     2    26    15    17    8.0000000     GPS         TIME OF FIRST OBS
    16                                                      LEAP SECONDS
                                                            END OF HEADER
 19  2 26 15 17  8.0000000  0  9G21R05R10R06R20R21R11R12R07
 112169912.959 8  87405102.05047  21345225.200    21345219.120          49.050
        42.550
 112542267.096 8  87532884.251 7  21053359.100    21053361.320          48.850
        44.350
 115873010.998 7  90123476.102 6  21737483.220    21737489.000          45.750
        38.000
 110110748.852 7                  20634706.980                          44.400

 115834489.914 6  90093504.530 7  21661634.040    21661637.520          41.950
        44.350
 114665159.326 7  89184023.352 7  21427926.120    21427927.920          45.450
        43.200
 115317613.370 7  89691488.323 7  21580119.740    21580122.360          44.750
        43.100
 127152095.489 6                  23803138.520                          39.050

 128080423.635 6  99618145.977 6  23926504.440    23926508.860          41.700
        38.800
 19  2 26 15 17  9.0000000  0  9G21R05R10R06R20R21R11R12R07
 112171866.127 8  87406623.99747  21345596.880    21345590.800          49.150
        42.700
 112543312.762 8  87533697.545 7  21053554.700    21053556.940          48.750
        44.800
 115876336.747 7  90126062.796 6  21738107.120    21738112.920          45.850
        38.050
 110107803.010 7                  20634154.940                          44.500

 115835259.887 6  90094103.397 7  21661778.040    21661781.500          41.500
        44.250
 114664127.671 7  89183220.953 7  21427733.340    21427735.140          45.450
        42.950
 115317780.823 7  89691618.556 7  21580151.080    21580153.700          44.650
        43.700
 127149709.717 6                  23802691.920                          38.850

 128076099.313 6  99614782.612 6  23925696.600    23925701.040          41.250
        38.950
 19  2 26 15 17 10.0000000  0  9G21R05R10R06R20R21R11R12R07
 112173819.298 8  87408145.94647  21345968.560    21345962.480          49.000
        42.300
 112544359.110 8  87534511.371 7  21053750.440    21053752.680          48.850
        44.550
 115879662.608 7  90128649.570 6  21738731.040    21738736.840          46.100
        38.150
 110104857.480 7                  20633602.940                          44.400

 115836029.749 6  90094702.176 7  21661922.000    21661925.460          41.800
        44.100
 114663095.919 7  89182418.477 7  21427540.520    21427542.320          45.350
        43.100
 115317948.978 7  89691749.339 7  21580182.560    21580185.160          45.050
        43.550
 127147324.477 6                  23802245.400                          39.250

 128071774.666 6  99611418.991 6  23924888.720    23924893.160          41.750
        38.150
 19  2 26 15 17 11.0000000  0  9G21R05R10R06R20R21R11R12R07
 112175772.563 8  87409667.96946  21346340.260    21346334.160          48.450
        41.650
 112545406.228 8  87535325.790 7  21053946.340    21053948.560          48.650
        44.400
 115882988.431 7  90131236.317 6  21739354.960    21739360.760          46.050
        38.350
 110101912.279 7                  20633051.020                          44.350

 115836799.597 6  90095300.945 7  21662065.980    21662069.420          40.950
        43.750
 114662063.975 7  89181615.858 7  21427347.680    21427349.460          45.500
        43.000
 115318117.671 7  89691880.536 7  21580214.140    21580216.740          45.700
        43.300
 127144939.685 6                  23801798.920                          38.550

 128067449.574 7  99608055.039 6  23924080.760    23924085.200          42.300
        39.050
 19  2 26 15 17 12.0000000  0  9G21R05R10R06R20R21R11R12R07
 112177725.925 8  87411190.07546  21346711.980    21346705.880          48.300
        41.700
 112546454.134 8  87536140.824 7  21054142.360    21054144.580          48.600
        44.100
 115886314.710 7  90133823.419 6  21739978.960    21739984.780          46.650
        38.500
 110098967.731 7                  20632499.200                          44.250

 115837569.389 6  90095899.670 7  21662209.960    21662213.380          40.950
        43.700
 114661031.939 7  89180813.162 7  21427154.820    21427156.600          45.400
        42.750
 115318287.146 7  89692012.344 7  21580245.860    21580248.460          45.700
        43.150
 127142555.471 6                  23801352.620                          38.250

 128063124.517 7  99604691.112 6  23923272.800    23923277.260          42.550
        38.000
 19  2 26 15 17 13.0000000  0  9G21R05R10R06R20R21R11R12R07
 112179679.372 8  87412712.25046  21347083.700    21347077.620          48.950
        41.850
 112547502.868 8  87536956.502 7  21054338.540    21054340.780          48.650
        44.900
 115889642.050 7  90136411.352 6  21740603.160    21740608.980          46.550
        38.100
 110096024.245 7                  20631947.580                          44.000

 115838339.093 6  90096498.333 7  21662353.900    21662357.320          41.600
        43.900
 114659999.901 7  89180010.461 7  21426961.960    21426963.740          46.250
        43.450
 115318457.768 7  89692145.050 7  21580277.800    21580280.380          45.700
        43.300
 127140171.910 6                  23800906.380                          39.200

 128058800.132 6  99601327.704 6  23922464.940    23922469.420          41.100
        37.000
 19  2 26 15 17 14.0000000  0  9G21R05R10R06R20R21R11R12R07
 112181633.683 8  87414235.08746  21347455.600    21347449.520          48.900
        41.900
 112548553.081 8  87537773.330 7  21054535.000    21054537.240          48.750
        45.050
 115892969.681 7  90138999.501 6  21741227.420    21741233.260          46.600
        38.600
 110093081.407 7                  20631396.080                          44.250

 115839109.564 6  90097097.584 7  21662497.980    21662501.420          41.750
        43.650
 114658968.545 7  89179208.291 7  21426769.220    21426771.000          45.750
        43.100
 115318629.578 7  89692278.684 7  21580309.940    21580312.520          45.250
        43.650
 127137789.720 6                  23800460.400                          39.700

 128054475.514 6  99597964.112 6  23921657.100    23921661.540          41.600
        38.050
 19  2 26 15 17 15.0000000  0  9G21R05R10R06R20R21R11R12R07
 112183588.288 8  87415758.15047  21347827.540    21347821.460          48.900
        42.700
 112549604.280 8  87538590.927 7  21054731.640    21054733.900          48.750
        44.700
 115896297.754 7  90141588.004 6  21741851.740    21741857.600          46.650
        38.350
 110090139.293 7                  20630844.720                          44.400

 115839880.188 6  90097696.956 7  21662642.100    21662645.520          41.150
        43.350
 114657937.285 7  89178406.203 7  21426576.500    21426578.280          45.600
        43.150
 115318802.308 7  89692413.031 7  21580342.260    21580344.840          45.300
        43.300
 127135408.235 6                  23800014.600                          39.700

 128050150.893 6  99594600.514 6  23920849.220    23920853.660          41.300
        38.250
 19  2 26 15 17 16.0000000  0  9G21R05R10R06R20R21R11R12R07
 112185542.967 8  87417281.27647  21348199.520    21348193.420          48.950
        42.100
 112550656.300 8  87539409.167 7  21054928.440    21054930.720          48.750
        44.650
 115899626.213 7  90144176.810 6  21742476.140    21742482.020          46.600
        38.300
 110087197.768 7                  20630293.480                          44.400

 115840650.753 6  90098296.284 7  21662786.180    21662789.600          41.700
        43.600
 114656905.954 7  89177604.054 7  21426383.760    21426385.540          45.650
        43.250
 115318975.850 7  89692548.008 7  21580374.740    21580377.320          45.500
        43.050
 127133027.353 6                  23799568.880                          39.350

 128045826.226 6  99591236.886 6  23920041.360    23920045.780          41.900
        37.650
 19  2 26 15 17 17.0000000  0  9G21R05R10R06R20R21R11R12R07
 112187497.774 8  87418804.50147  21348571.500    21348565.420          48.950
        42.250
 112551709.113 8  87540228.032 7  21055125.380    21055127.680          48.850
        44.600
 115902954.912 7  90146765.801 6  21743100.600    21743106.480          46.150
        37.950
 110084256.694 7                  20629742.320                          44.650

 115841421.296 7  90098895.600 7  21662930.280    21662933.700          42.050
        43.750
 114655874.501 7  89176801.815 7  21426190.980    21426192.780          45.850
        43.350
 115319150.129 7  89692683.551 7  21580407.340    21580409.920          45.550
        43.200
 127130647.041 6                  23799123.240                          39.000

 128041501.333 7  99587873.074 6  23919233.420    23919237.840          42.150
        37.200
 19  2 26 15 17 18.0000000  0  9G21R05R10R06R20R21R11R12R07
 112189452.789 8  87420327.89147  21348943.540    21348937.440          49.100
        42.050
 112552762.859 8  87541047.618 7  21055322.500    21055324.820          48.900
        44.600
 115906284.014 7  90149355.098 6  21743725.120    21743731.020          46.450
        38.550
 110081316.281 7                  20629191.280                          44.450

 115842191.933 6  90099494.986 7  21663074.420    21663077.800          41.800
        43.950
 114654843.076 7  89175999.597 7  21425998.220    21426000.040          45.800
        43.400
 115319325.234 7  89692819.737 7  21580440.120    21580442.680          45.650
        43.300
 127128267.417 6                  23798677.760                          38.950

 128037176.417 6  99584509.249 6  23918425.500    23918429.920          41.750
        37.250
 19  2 26 15 17 19.0000000  0  9G21R05R10R06R20R21R11R12R07
 112191407.854 8  87421851.31947  21349315.580    21349309.460          49.100
        42.100
 112553817.329 8  87541867.764 7  21055519.760    21055522.080          48.900
        44.700
 115909613.342 7  90151944.575 6  21744349.700    21744355.600          46.950
        38.000
 110078376.301 7                  20628640.320                          44.250

 115842962.474 6  90100094.293 7  21663218.520    21663221.900          41.950
        43.800
 114653811.522 7  89175197.282 7  21425805.440    21425807.260          46.100
        43.750
 115319500.999 7  89692956.447 7  21580473.000    21580475.560          45.250
        43.400
 127125888.264 6                  23798232.360                          38.750

 128032851.291 6  99581145.280 5  23917617.500    23917621.940          41.600
        35.850
 19  2 26 15 17 20.0000000  0  9G21R05R10R06R20R21R11R12R07
 112193362.993 8  87423374.80347  21349687.620    21349681.520          49.050
        42.000
 112554872.548 8  87542688.488 7  21055717.160    21055719.500          48.900
        44.250
 115912942.982 7  90154534.291 6  21744974.320    21744980.240          46.800
        37.900
 110075436.873 7                  20628089.480                          44.300

 115843732.940 6  90100693.540 7  21663362.620    21663365.960          41.950
        43.750
 114652779.896 7  89174394.910 7  21425612.660    21425614.460          46.100
        43.400
 115319677.515 7  89693093.744 7  21580506.020    21580508.600          45.600
        43.200
 127123509.704 6                  23797787.040                          38.700

 128028526.036 6  99577781.209 5  23916809.520    23916813.920          41.100
        35.650
 19  2 26 15 17 21.0000000  0  9G21R05R10R06R20R21R11R12R07
 112195318.434 8  87424898.52347  21350059.740    21350053.640          49.000
        42.050
 112555928.737 8  87543509.968 7  21055914.740    21055917.080          48.950
        44.600
 115916273.022 7  90157124.322 6  21745599.020    21745604.960          46.900
        37.700
 110072498.038 7                  20627538.740                          44.150

 115844503.595 6  90101292.933 7  21663506.720    21663510.080          41.900
        43.950
 114651748.412 7  89173592.653 7  21425419.900    21425421.720          46.200
        43.850
 115319854.976 7  89693231.773 7  21580539.240    21580541.820          45.450
        43.400
 127121131.966 6                  23797341.920                          39.900

 128024200.698 6  99574417.072 6  23916001.500    23916005.920          40.950
        37.200
 19  2 26 15 17 22.0000000  0  9G21R05R10R06R20R21R11R12R07
 112197273.943 8  87426422.30147  21350431.860    21350425.760          48.950
        42.850
 112556985.696 8  87544332.045 7  21056112.460    21056114.820          49.000
        44.500
 115919603.246 7  90159714.488 6  21746223.780    21746229.700          46.600
        37.700
 110069559.645 7                  20626988.080                          44.050

 115845274.182 6  90101892.274 7  21663650.820    21663654.180          41.900
        43.550
 114650716.743 7  89172790.250 7  21425227.100    21425228.920          46.100
        43.800
 115320033.122 7  89693370.337 7  21580572.580    21580575.140          45.650
        43.000
 127118754.674 6                  23796896.880                          38.600

 128019875.132 6  99571052.750 5  23915193.440    23915197.860          41.350
        35.900
 19  2 26 15 17 23.0000000  0  9G21R05R10R06R20R21R11R12R07
 112199229.696 8  87427946.26047  21350804.020    21350797.940          48.950
        43.200
 112558043.622 8  87545154.877 7  21056310.360    21056312.720          48.650
        44.350
 115922933.944 7  90162305.025 6  21746848.620    21746854.540          46.200
        37.050
 110066622.040 7                  20626437.560                          43.750

 115846044.899 7  90102491.723 7  21663794.960    21663798.300          42.000
        43.650
 114649685.068 7  89171987.837 7  21425034.300    21425036.120          46.450
        43.950
 115320212.122 7  89693509.554 7  21580606.080    21580608.640          45.600
        43.150
 127116378.079 6                  23796451.980                          39.250

 128015549.641 6  99567688.481 5  23914385.380    23914389.820          41.000
        35.600
 19  2 26 15 17 24.0000000  0  9G21R05R10R06R20R21R11R12R07
 112201185.539 8  87429470.29247  21351176.200    21351170.120          49.250
        43.750
 112559102.375 8  87545978.351 7  21056508.420    21056510.780          48.850
        45.050
 115926265.210 7  90164896.005 6  21747473.540    21747479.480          46.650
        36.750
 110063685.261 7                  20625887.220                          43.250

 115846815.538 7  90103091.113 7  21663939.060    21663942.420          43.000
        44.600
 114648653.239 7  89171185.300 7  21424841.480    21424843.300          47.450
        45.350
 115320391.906 7  89693649.381 7  21580639.700    21580642.280          46.150
        43.800
 127114001.829 6                  23796007.140                          40.500

 128011224.362 6  99564324.379 5  23913577.400    23913581.840          40.000
        34.700
 19  2 26 15 17 25.0000000  0  9G21R05R10R06R20R21R11R12R07
 112203141.368 8  87430994.30247  21351548.400    21351542.300          49.300
        43.700
 112560161.752 8  87546802.313 7  21056706.600    21056708.960          48.950
        44.550
 115929596.470 7  90167486.979 6  21748098.500    21748104.420          46.750
        36.850
 110060748.558 7                  20625336.880                          43.300

 115847586.101 7  90103690.439 7  21664083.180    21664086.520          42.600
        44.000
 114647621.409 7  89170382.762 7  21424648.680    21424650.480          47.400
        44.900
 115320572.378 7  89693789.744 7  21580673.480    21580676.060          46.550
        44.000
 127111626.391 6                  23795562.460                          40.150

 128006898.617 6  99560959.911 5  23912769.300    23912773.740          39.650
        34.650
 19  2 26 15 17 26.0000000  0  9G21R05R10R06R20R21R11R12R07
 112205097.584 8  87432518.61847  21351920.640    21351914.560          49.350
        43.300
 112561222.191 8  87547627.101 7  21056904.980    21056907.340          48.850
        44.800
 115932928.269 7  90170078.374 5  21748723.540    21748729.460          46.200
        35.900
 110057812.676 7                  20624786.720                          43.250

 115848356.901 7  90104289.948 7  21664227.300    21664230.660          42.950
        44.550
 114646589.722 7  89169580.334 7  21424455.880    21424457.680          47.700
        45.350
 115320753.842 7  89693930.885 7  21580707.440    21580710.020          46.700
        43.950
 127109251.722 6                  23795117.920                          39.850

 128002572.950 6  99557595.505 5  23911961.240    23911965.660          38.400
        35.700
 19  2 26 15 17 27.0000000  0  9G21R05R10R06R20R21R11R12R07
 112207053.908 8  87434043.02647  21352292.920    21352286.840          49.400
        43.100
 112562283.429 8  87548452.512 7  21057103.500    21057105.880          48.950
        44.750
 115936260.212 7  90172669.887 5  21749348.600    21749354.540          45.950
        35.800
 110054877.205 7                  20624236.620                          43.200

 115849127.685 7  90104889.447 7  21664371.440    21664374.800          43.500
        44.500
 114645557.970 7  89168777.869 7  21424263.060    21424264.880          47.800
        45.650
 115320936.014 7  89694072.583 7  21580741.520    21580744.120          47.000
        44.200
 127106877.638 6                  23794673.460                          39.900

 127998246.940 6  99554230.822 5  23911153.080    23911157.500          38.750
        34.650
 19  2 26 15 17 28.0000000  0  9G21R05R10R06R20R21R11R12R07
 112209010.481 8  87435567.63147  21352665.260    21352659.160          49.550
        43.450
 112563345.522 8  87549278.589 7  21057302.180    21057304.560          49.100
        44.500
 115939592.483 7  90175261.658 5  21749973.720    21749979.660          46.100
        35.750
 110051942.147 7                  20623686.600                          43.300

 115849898.605 7  90105489.052 7  21664515.600    21664518.960          43.100
        44.650
 114644526.419 7  89167975.553 7  21424070.300    21424072.120          47.750
        45.150
 115321119.180 7  89694215.051 7  21580775.800    21580778.400          46.350
        43.650
 127104504.516 6                  23794229.220                          40.650

 127993920.601 6  99550865.886 5  23910344.880    23910349.320          39.700
        35.600
 19  2 26 15 17 29.0000000  0  9G21R05R10R06R20R21R11R12R07
 112210967.112 8  87437092.27847  21353037.600    21353031.520          49.550
        42.900
 112564408.465 8  87550105.325 7  21057501.040    21057503.400          49.150
        44.200
 115942924.959 7  90177853.579 5  21750598.880    21750604.820          46.150
        35.950
 110049007.765 7                  20623136.680                          43.550

 115850669.421 7  90106088.577 7  21664659.740    21664663.120          42.900
        44.700
 114643494.538 7  89167172.984 7  21423877.480    21423879.300          47.700
        45.350
 115321302.835 7  89694357.892 7  21580810.140    21580812.780          46.600
        43.900
 127102131.626 6                  23793785.000                          40.650

 127989594.243 6  99547500.932 5  23909536.680    23909541.120          39.400
        34.250
 19  2 26 15 17 30.0000000  0  9G21R05R10R06R20R21R11R12R07
 112212923.832 8  87438616.99147  21353409.940    21353403.860          49.800
        43.650
 112565472.192 8  87550932.673 7  21057700.020    21057702.400          49.300
        44.850
 115946258.056 7  90180445.990 5  21751224.160    21751230.100          45.900
        35.750
 110046074.009 7                  20622586.900                          43.050

 115851440.189 7  90106688.068 7  21664803.880    21664807.260          43.400
        45.100
 114642462.720 8  89166370.463 7  21423684.660    21423686.480          48.050
        45.300
 115321487.494 7  89694501.516 7  21580844.700    21580847.340          46.850
        44.000
 127099759.516 6                  23793340.920                          40.400

 127985267.984 6  99544136.062 6  23908728.520    23908732.940          38.900
        36.200
 19  2 26 15 17 31.0000000  0  9G21R05R10R06R20R21R11R12R07
 112214880.647 8  87440141.78247  21353782.320    21353776.240          49.900
        43.400
 112566536.685 8  87551760.615 7  21057899.160    21057901.540          49.000
        44.900
 115949591.115 7  90183038.374 6  21751849.440    21751855.380          46.050
        36.250
 110043140.598 7                  20622037.180                          43.150

 115852210.912 7  90107287.523 7  21664948.000    21664951.400          43.350
        45.100
 114641430.716 7  89165567.791 7  21423491.820    21423493.620          47.950
        45.450
 115321672.696 7  89694645.568 7  21580879.360    21580881.980          46.650
        44.200
 127097387.865 6                  23792896.920                          40.450

 127980941.305 6  99540770.872 6  23907920.240    23907924.680          37.950
        37.250
 19  2 26 15 17 32.0000000  0  9G21R05R10R06R20R21R11R12R07
 112216837.722 8  87441666.77847  21354154.740    21354148.660          49.750
        43.250
 112567602.082 8  87552589.253 7  21058098.460    21058100.840          49.050
        45.000
 115952924.327 7  90185630.882 5  21752474.760    21752480.680          45.850
        35.700
 110040207.632 7                  20621487.520                          43.400

 115852981.771 7  90107887.082 7  21665092.180    21665095.560          43.450
        45.050
 114640398.748 7  89164765.151 7  21423298.960    21423300.780          47.700
        45.650
 115321858.641 7  89694790.196 7  21580914.180    21580916.780          46.750
        44.100
 127095016.903 6                  23792453.100                          40.300

 127976614.377 6  99537405.483 6  23907111.960    23907116.380          38.750
        36.100
 19  2 26 15 17 33.0000000  0  9G21R05R10R06R20R21R11R12R07
 112218794.829 8  87443191.79647  21354527.180    21354521.080          49.700
        43.550
 112568668.200 8  87553418.456 7  21058297.920    21058300.280          49.050
        44.950
 115956257.842 7  90188223.610 6  21753100.120    21753106.040          45.900
        36.250
 110037275.112 7                  20620937.960                          43.550

 115853752.541 7  90108486.568 7  21665236.300    21665239.700          43.100
        45.000
 114639366.656 7  89163962.411 7  21423106.100    21423107.920          47.700
        44.900
 115322045.363 7  89694935.430 7  21580949.120    21580951.740          46.250
        44.250
 127092646.532 6                  23792009.380                          40.450

 127972287.259 6  99534039.943 5  23906303.680    23906308.020          40.050
        35.500
 19  2 26 15 17 34.0000000  0  9G21R05R10R06R20R21R11R12R07
 112220752.051 8  87444716.90847  21354899.620    21354893.540          49.850
        43.250
 112569735.147 8  87554248.301 7  21058497.500    21058499.880          48.850
        45.350
 115959591.962 7  90190816.806 6  21753725.600    21753731.500          46.000
        36.100
 110034343.406 7                  20620388.600                          43.600

 115854523.264 7  90109086.017 7  21665380.460    21665383.840          43.350
        44.800
 114638334.495 7  89163159.615 7  21422913.200    21422915.020          47.650
        45.400
 115322232.951 7  89695081.328 7  21580984.220    21580986.840          47.300
        43.800
 127090276.705 6                  23791565.760                          39.850

 127967960.336 6  99530674.554 5  23905495.360    23905499.720          38.950
        34.900
 19  2 26 15 17 35.0000000  0  9G21R05R10R06R20R21R11R12R07
 112222709.428 8  87446242.13947  21355272.100    21355266.020          49.900
        43.250
 112570802.915 8  87555078.787 7  21058697.260    21058699.640          49.000
        45.250
 115962926.277 7  90193410.156 5  21754351.120    21754357.000          45.800
        35.800
 110031412.143 7                  20619839.260                          43.650

 115855294.013 7  90109685.486 7  21665524.580    21665527.960          43.300
        44.950
 114637302.320 7  89162356.810 7  21422720.320    21422722.140          47.700
        45.650
 115322421.292 7  89695227.807 7  21581019.460    21581022.080          47.000
        44.000
 127087907.517 6                  23791122.260                          39.250

 127963633.151 6  99527308.966 5  23904687.000    23904691.360          39.250
        35.700
 19  2 26 15 17 36.0000000  0  9G21R05R10R06R20R21R11R12R07
 112224667.081 8  87447767.57947  21355644.640    21355638.540          49.850
        43.150
 112571871.663 8  87555910.038 7  21058897.200    21058899.560          49.150
        45.400
 115966261.000 7  90196003.830 5  21754976.700    21754982.580          46.200
        35.850
 110028481.477 7                  20619290.060                          43.700

 115856064.915 7  90110285.079 7  21665668.740    21665672.120          43.400
        44.950
 114636270.287 7  89161554.114 7  21422527.460    21422529.300          47.800
        45.550
 115322610.600 7  89695375.039 7  21581054.880    21581057.500          47.200
        43.800
 127085539.154 6                  23790678.940                          39.750

 127959305.881 6  99523943.315 5  23903878.620    23903882.980          39.350
        35.550
 19  2 26 15 17 37.0000000  0  9G21R05R10R06R20R21R11R12R07
 112226624.874 8  87449293.12547  21356017.200    21356011.100          49.800
        42.850
 112572941.267 8  87556741.952 7  21059097.280    21059099.660          49.050
        45.300
 115969595.976 7  90198597.700 5  21755602.340    21755608.220          45.950
        35.950
 110025551.406 7                  20618740.940                          43.350

 115856835.835 7  90110884.685 7  21665812.900    21665816.300          43.350
        45.400
 114635238.105 7  89160751.305 7  21422334.580    21422336.400          47.850
        45.300
 115322800.596 7  89695522.817 7  21581090.440    21581093.060          47.000
        44.050
 127083171.296 6                  23790235.660                          39.450

 127954978.554 6  99520577.617 5  23903070.220    23903074.600          39.750
        35.750
 19  2 26 15 17 38.0000000  0  9G21R05R10R06R20R21R11R12R07
 112228582.721 8  87450818.71547  21356389.780    21356383.660          49.850
        42.950
 112574011.608 8  87557574.438 7  21059297.520    21059299.900          49.050
        45.050
 115972931.173 7  90201191.740 6  21756228.000    21756233.900          45.500
        36.200
 110022621.797 7                  20618191.920                          43.200

 115857606.699 7  90111484.247 7  21665957.020    21665960.480          43.050
        45.200
 114634205.818 7  89159948.419 7  21422141.680    21422143.500          47.900
        45.350
 115322991.315 7  89695671.152 7  21581126.120    21581128.740          47.000
        43.850
 127080803.999 6                  23789792.520                          39.000

 127950651.010 6  99517211.741 5  23902261.780    23902266.180          39.600
        35.650
 19  2 26 15 17 39.0000000  0  9G21R05R10R06R20R21R11R12R07
 112230540.966 8  87452344.61547  21356762.420    21356756.300          49.900
        43.000
 112575083.000 8  87558407.743 7  21059497.960    21059500.320          49.150
        45.600
 115976267.031 7  90203786.290 6  21756853.820    21756859.680          45.700
        36.200
 110019693.033 7                  20617643.080                          43.050

 115858377.834 7  90112084.018 7  21666101.240    21666104.680          43.050
        45.000
 114633173.790 7  89159145.735 7  21421948.820    21421950.640          47.800
        45.850
 115323183.081 7  89695820.302 7  21581162.000    21581164.640          46.750
        44.200
 127078437.610 6                  23789349.520                          40.700

 127946323.622 6  99513845.986 6  23901453.400    23901457.800          39.850
        36.900
 19  2 26 15 17 40.0000000  0  9G21R05R10R06R20R21R11R12R07
 112232499.562 8  87453870.79447  21357135.140    21357129.000          49.750
        43.250
 112576155.410 8  87559241.839 7  21059698.560    21059700.940          49.100
        45.400
 115979603.329 7  90206381.186 5  21757479.700    21757485.580          46.050
        35.600
 110016764.953 7                  20617094.360                          43.300

 115859149.152 7  90112683.932 7  21666245.500    21666248.940          43.150
        44.950
 114632141.939 7  89158343.185 7  21421756.000    21421757.820          47.850
        45.800
 115323375.810 7  89695970.202 7  21581198.080    21581200.700          46.600
        43.800
 127076072.027 6                  23788906.680                          40.000

 127941996.284 6  99510480.277 6  23900644.980    23900649.420          40.050
        36.000
 19  2 26 15 17 41.0000000  0  9G21R05R10R06R20R21R11R12R07
 112234458.574 8  87455397.29747  21357507.920    21357501.800          49.600
        42.700
 112577228.980 8  87560076.836 7  21059899.400    21059901.780          48.850
        45.300
 115982939.990 7  90208976.367 6  21758105.660    21758111.520          46.300
        36.700
 110013837.612 7                  20616545.760                          43.550

 115859920.803 7  90113284.107 7  21666389.800    21666393.240          42.650
        44.600
 114631110.241 7  89157540.751 7  21421563.220    21421565.040          47.600
        45.450
 115323569.457 7  89696120.816 7  21581234.300    21581236.940          46.650
        43.650
 127073707.227 6                  23788463.960                          40.300

 127937668.888 6  99507114.525 6  23899836.560    23899841.020          39.650
        36.000
 19  2 26 15 17 42.0000000  0  9G21R05R10R06R20R21R11R12R07
 112236417.695 8  87456923.89447  21357880.740    21357874.620          49.850
        43.200
 112578303.374 8  87560912.478 7  21060100.380    21060102.780          48.850
        45.300
 115986277.077 7  90211571.877 6  21758731.680    21758737.560          45.900
        36.550
 110010910.855 7                  20615997.260                          43.100

 115860692.405 7  90113884.240 7  21666534.120    21666537.540          42.950
        44.600
 114630078.486 7  89156738.277 7  21421370.400    21421372.220          47.950
        45.050
 115323763.941 7  89696272.082 7  21581270.700    21581273.340          46.650
        43.650
 127071343.052 6                  23788021.420                          40.500

 127933341.374 6  99503748.682 6  23899028.140    23899032.600          40.200
        36.850
 19  2 26 15 17 43.0000000  0  9G21R05R10R06R20R21R11R12R07
 112238376.907 8  87458450.56047  21358253.560    21358247.440          49.600
        42.600
 112579378.516 8  87561748.701 7  21060301.500    21060303.900          49.100
        45.300
 115989614.489 7  90214167.639 6  21759357.760    21759363.640          46.250
        36.950
 110007984.602 7                  20615448.880                          43.050

 115861463.924 7  90114484.304 7  21666678.380    21666681.820          43.100
        44.600
 114629046.681 8  89155935.762 7  21421177.600    21421179.400          48.250
        45.050
 115323959.245 7  89696423.989 7  21581307.260    21581309.900          46.600
        44.150
 127068979.521 6                  23787578.940                          40.900

 127929013.806 6  99500382.809 5  23898219.700    23898224.160          40.550
        35.250
 19  2 26 15 17 44.0000000  0  9G21R05R10R06R20R21R11R12R07
 112240336.199 8  87459977.28647  21358626.400    21358620.300          49.550
        43.400
 112580454.448 8  87562585.546 7  21060502.780    21060505.200          49.100
        45.100
 115992952.172 7  90216763.614 6  21759983.920    21759989.800          45.950
        36.600
 110005058.848 7                  20614900.600                          42.900

 115862235.457 7  90115084.381 7  21666822.680    21666826.100          43.550
        45.450
 114628014.801 8  89155133.196 7  21420984.760    21420986.580          48.000
        45.000
 115324155.287 7  89696576.468 7  21581343.940    21581346.580          46.350
        44.250
 127066616.602 6                  23787136.620                          40.250

 127924686.099 6  99497016.825 5  23897411.240    23897415.700          40.200
        34.650
 19  2 26 15 17 45.0000000  0  9G21R05R10R06R20R21R11R12R07
 112242295.382 8  87461503.92547  21358999.220    21358993.120          49.800
        43.100
 112581530.892 8  87563422.788 7  21060704.160    21060706.580          49.100
        44.650
 115996290.112 7  90219359.793 5  21760610.120    21760615.980          45.900
        35.600
 110002133.452 7                  20614352.400                          42.950

 115863006.706 7  90115684.248 7  21666966.920    21666970.340          43.200
        45.050
 114626982.666 7  89154330.427 7  21420791.880    21420793.700          47.800
        44.900
 115324352.010 7  89696729.479 7  21581380.740    21581383.400          46.450
        44.150
 127064254.123 6                  23786694.360                          41.050

 127920358.219 6  99493650.702 6  23896602.760    23896607.220          40.350
        36.100
 19  2 26 15 17 46.0000000  0  9G21R05R10R06R20R21R11R12R07
 112244254.651 8  87463030.63247  21359372.060    21359365.960          49.750
        43.250
 112582608.145 8  87564260.644 7  21060905.680    21060908.080          49.100
        44.750
 115999628.084 7  90221955.998 5  21761236.320    21761242.160          45.800
        35.800
 109999208.552 7                  20613804.300                          43.150

 115863777.961 7  90116284.121 7  21667111.160    21667114.580          43.550
        45.050
 114625950.315 7  89153527.498 7  21420598.960    21420600.780          47.900
        44.950
 115324549.213 7  89696882.861 7  21581417.660    21581420.300          46.300
        44.000
 127061892.007 6                  23786252.180                          40.500

 127916030.006 6  99490284.318 6  23895794.260    23895798.680          40.200
        36.700
 19  2 26 15 17 47.0000000  0  9G21R05R10R06R20R21R11R12R07
 112246213.825 8  87464557.26047  21359744.880    21359738.780          49.950
        43.700
 112583685.997 8  87565098.967 7  21061107.320    21061109.720          49.000
        45.300
 116002966.128 7  90224552.256 5  21761862.540    21761868.360          45.350
        35.700
 109996283.940 7                  20613256.240                          43.200

 115864548.993 7  90116883.813 7  21667255.340    21667258.780          43.250
        45.100
 114624917.701 8  89152724.356 7  21420406.000    21420407.800          48.250
        45.100
 115324746.992 7  89697036.687 7  21581454.660    21581457.320          46.300
        44.350
 127059530.303 6                  23785810.060                          40.500

 127911701.424 6  99486917.645 6  23894985.660    23894990.060          40.400
        36.650
 19  2 26 15 17 48.0000000  0  9G21R05R10R06R20R21R11R12R07
 112248173.068 8  87466083.93847  21360117.720    21360111.600          50.000
        43.700
 112584764.600 8  87565937.880 7  21061309.100    21061311.500          49.100
        45.350
 116006304.345 7  90227148.647 5  21762488.780    21762494.600          45.500
        35.950
 109993359.699 7                  20612708.240                          43.400

 115865319.935 7  90117483.426 7  21667399.500    21667402.960          43.150
        45.500
 114623885.000 8  89151921.139 7  21420213.020    21420214.820          48.300
        45.200
 115324945.454 7  89697191.046 7  21581491.800    21581494.460          46.050
        44.150
 127057169.205 6                  23785368.020                          40.350

 127907372.529 6  99483550.718 6  23894177.000    23894181.380          39.850
        37.000
 19  2 26 15 17 49.0000000  0  9G21R05R10R06R20R21R11R12R07
 112250132.534 8  87467610.79347  21360490.580    21360484.460          49.850
        43.600
 112585844.144 8  87566777.521 7  21061511.060    21061513.440          48.800
        44.850
 116009642.876 7  90229745.282 6  21763115.100    21763120.900          46.000
        36.850
 109990436.098 7                  20612160.360                          43.300

 115866090.992 7  90118083.137 7  21667543.700    21667547.140          43.300
        45.100
 114622852.330 7  89151117.948 7  21420020.020    21420021.840          47.850
        45.450
 115325144.696 7  89697346.011 7  21581529.060    21581531.760          46.100
        44.100
 127054808.748 6                  23784926.100                          39.700

 127903043.481 6  99480183.673 6  23893368.320    23893372.680          39.700
        36.600
 19  2 26 15 17 50.0000000  0  9G21R05R10R06R20R21R11R12R07
 112252092.365 8  87469137.93047  21360863.540    21360857.400          49.650
        42.800
 112586924.685 8  87567617.946 7  21061713.180    21061715.580          48.800
        45.100
 116012981.852 7  90232342.266 6  21763741.480    21763747.300          46.250
        36.650
 109987513.079 7                  20611612.580                          43.250

 115866862.281 7  90118683.020 7  21667687.920    21667691.380          43.050
        44.850
 114621819.888 7  89150314.933 7  21419827.100    21419828.900          47.700
        45.150
 115325344.967 7  89697501.779 7  21581566.560    21581569.240          46.250
        43.950
 127052449.194 6                  23784484.380                          39.750

 127898714.395 6  99476816.605 6  23892559.640    23892563.960          40.650
        36.000
 19  2 26 15 17 51.0000000  0  9G21R05R10R06R20R21R11R12R07
 112254052.446 8  87470665.26847  21361236.520    21361230.380          49.750
        43.200
 112588006.220 8  87568459.150 7  21061915.500    21061917.920          48.850
        45.300
 116016321.527 7  90234939.787 6  21764368.000    21764373.820          46.450
        37.200
 109984591.109 7                  20611065.020                          43.300

 115867633.680 7  90119282.997 7  21667832.180    21667835.640          43.250
        44.850
 114620787.414 7  89149511.906 7  21419634.160    21419635.960          47.900
        45.100
 115325546.195 7  89697658.294 7  21581604.220    21581606.900          46.650
        44.050
 127050090.264 6                  23784042.800                          39.200

 127894385.680 6  99473449.830 6  23891750.980    23891755.320          40.100
        36.300
 19  2 26 15 17 52.0000000  0  9G21R05R10R06R20R21R11R12R07
 112256012.871 8  87472192.87247  21361609.580    21361603.440          49.900
        43.150
 112589088.749 8  87569301.122 7  21062118.020    21062120.440          48.800
        45.050
 116019661.645 7  90237537.652 6  21764994.600    21765000.400          46.250
        36.300
 109981669.680 7                  20610517.560                          43.400

 115868405.280 7  90119883.126 7  21667976.460    21667979.960          43.200
        44.900
 114619755.172 7  89148709.058 7  21419441.260    21419443.060          47.850
        45.550
 115325748.473 7  89697815.621 7  21581642.060    21581644.760          46.450
        44.250
 127047732.211 6                  23783601.340                          39.400

 127890056.916 6  99470083.019 5  23890942.300    23890946.680          39.550
        35.600
 19  2 26 15 17 53.0000000  0  9G21R05R10R06R20R21R11R12R07
 112257973.688 8  87473720.78347  21361982.720    21361976.580          49.700
        43.000
 112590172.369 8  87570143.937 7  21062320.740    21062323.140          48.750
        45.250
 116023002.252 7  90240135.894 6  21765621.300    21765627.080          46.400
        36.600
 109978749.054 7                  20609970.240                          43.300

 115869177.155 7  90120483.471 7  21668120.800    21668124.300          43.150
        44.650
 114618723.123 8  89147906.353 7  21419248.400    21419250.200          48.000
        44.950
 115325951.734 7  89697973.710 7  21581680.080    21581682.800          46.700
        44.150
 127045374.997 6                  23783160.040                          40.100

 127885728.237 6  99466716.274 5  23890133.620    23890138.040          39.650
        35.600
 19  2 26 15 17 54.0000000  0  9G21R05R10R06R20R21R11R12R07
 112259934.791 8  87475248.91547  21362355.900    21362349.760          49.600
        42.950
 112591256.938 8  87570987.486 7  21062523.620    21062526.040          48.800
        44.800
 116026343.316 7  90242734.495 6  21766248.060    21766253.880          46.450
        36.800
 109975829.055 7                  20609423.040                          43.550

 115869949.179 7  90121083.935 7  21668265.180    21668268.680          43.200
        44.550
 114617691.248 7  89147103.783 7  21419055.580    21419057.360          47.950
        45.050
 115326155.991 7  89698132.579 7  21581718.300    21581721.020          46.350
        44.000
 127043018.642 6                  23782718.940                          39.950

 127881399.524 6  99463349.491 5  23889324.940    23889329.400          39.850
        35.500
 19  2 26 15 17 55.0000000  0  9G21R05R10R06R20R21R11R12R07
 112261896.133 8  87476777.23447  21362729.140    21362722.980          49.600
        42.550
 112592342.474 8  87571831.794 7  21062726.700    21062729.120          48.850
        44.750
 116029684.747 7  90245333.377 6  21766874.920    21766880.720          46.400
        37.000
 109972909.740 7                  20608875.980                          43.700

 115870721.338 7  90121684.500 7  21668409.580    21668413.080          43.200
        44.400
 114616659.371 7  89146301.214 7  21418862.760    21418864.540          47.950
        45.050
 115326361.021 7  89698292.047 7  21581756.660    21581759.400          46.950
        44.000
 127040662.926 6                  23782277.960                          39.950

 127877070.768 6  99459982.689 5  23888516.260    23888520.740          40.000
        35.650
 19  2 26 15 17 56.0000000  0  9G21R05R10R06R20R21R11R12R07
 112263857.515 8  87478305.58347  21363102.380    21363096.220          49.750
        42.900
 112593428.782 8  87572676.701 7  21062929.920    21062932.340          48.850
        44.750
 116033026.527 7  90247932.540 6  21767501.840    21767507.620          46.300
        36.650
 109969990.955 7                  20608329.000                          43.550

 115871493.408 7  90122284.997 7  21668553.940    21668557.460          43.100
        44.750
 114615627.335 8  89145498.526 7  21418669.920    21418671.680          48.000
        44.850
 115326566.777 7  89698452.079 7  21581795.160    21581797.900          46.800
        43.950
 127038307.725 6                  23781837.060                          38.050

 127872741.966 6  99456615.849 5  23887707.600    23887712.080          39.400
        35.900
 19  2 26 15 17 57.0000000  0  9G21R05R10R06R20R21R11R12R07
 112265819.167 8  87479834.14147  21363475.660    21363469.500          49.850
        42.800
 112594516.067 8  87573522.365 7  21063133.300    21063135.740          48.850
        44.700
 116036368.676 7  90250531.980 6  21768128.820    21768134.580          46.150
        36.950
 109967072.800 7                  20607782.120                          43.750

 115872265.628 7  90122885.614 7  21668698.360    21668701.880          43.150
        44.900
 114614595.385 8  89144695.905 7  21418477.060    21418478.820          48.000
        45.200
 115326773.402 7  89698612.786 7  21581833.820    21581836.560          46.650
        43.900
 127035953.331 6                  23781396.340                          38.650

 127868413.058 6  99453248.929 5  23886898.900    23886903.400          39.950
        33.600
 19  2 26 15 17 58.0000000  0  9G21R05R10R06R20R21R11R12R07
 112267781.226 8  87481363.01547  21363849.040    21363842.860          49.550
        42.450
 112595604.318 8  87574368.787 7  21063336.880    21063339.320          48.750
        44.900
 116039710.850 7  90253131.447 6  21768755.800    21768761.580          45.800
        37.050
 109964154.989 7                  20607235.320                          43.900

 115873038.120 7  90123486.444 7  21668842.820    21668846.360          42.900
        44.400
 114613563.724 7  89143893.510 7  21418284.280    21418286.020          47.800
        44.750
 115326980.924 7  89698774.188 7  21581872.660    21581875.400          46.900
        44.000
 127033599.960 6                  23780955.820                          38.550

 127864083.737 6  99449881.689 5  23886090.160    23886094.640          40.300
        34.750
 19  2 26 15 17 59.0000000  0  9G21R05R10R06R20R21R11R12R07
 112269743.315 8  87482891.91547  21364222.400    21364216.240          49.250
        42.450
 112596693.396 8  87575215.849 7  21063540.600    21063543.060          48.800
        44.500
 116043053.508 7  90255731.290 6  21769382.880    21769388.640          46.050
        37.300
 109961238.005 7                  20606688.660                          43.600

 115873810.525 7  90124087.213 7  21668987.260    21668990.800          42.950
        44.250
 114612531.777 7  89143090.889 7  21418091.420    21418093.180          47.200
        44.350
 115327189.104 7  89698936.103 7  21581911.620    21581914.360          47.150
        43.800
 127031246.797 6                  23780515.280                          40.100

 127859754.582 6  99446514.557 5  23885281.440    23885285.900          39.800
        35.850
 19  2 26 15 18  0.0000000  0  9G21R05R10R06R20R21R11R12R07
 112271704.773 8  87484420.32747  21364595.660    21364589.500          49.750
        42.350
 112597782.487 8  87576062.920 7  21063744.360    21063746.800          49.000
        45.250
 116046396.650 7  90258331.514 6  21770010.040    21770015.800          46.400
        37.150
 109958321.339 7                  20606142.080                          43.800

 115874582.076 7  90124687.313 7  21669131.540    21669135.100          43.250
        44.650
 114611499.177 8  89142287.759 7  21417898.460    21417900.200          48.100
        44.850
 115327397.839 7  89699098.453 7  21581950.680    21581953.420          46.850
        43.700
 127028893.726 6                  23780074.780                          40.100

 127855425.443 6  99443147.432 5  23884472.700    23884477.180          39.900
        34.100
 19  2 26 15 18  1.0000000  0  9G21R05R10R06R20R21R11R12R07
 112273666.435 8  87485948.89447  21364968.960    21364962.800          49.900
        42.650
 112598872.495 8  87576910.708 7  21063948.260    21063950.700          49.050
        45.250
 116049739.683 7  90260931.653 6  21770637.160    21770642.940          46.250
        36.450
 109955405.049 7                  20605595.560                          43.600

 115875353.726 7  90125287.485 7  21669275.860    21669279.400          43.350
        44.600
 114610466.521 8  89141484.584 7  21417705.480    21417707.220          48.250
        45.600
 115327607.131 7  89699261.237 7  21581989.840    21581992.580          46.700
        43.850
 127026541.223 6                  23779634.380                          40.100

 127851095.798 6  99439779.926 5  23883663.900    23883668.340          39.200
        34.400
 19  2 26 15 18  2.0000000  0  9G21R05R10R06R20R21R11R12R07
 112275628.363 8  87487477.67147  21365342.300    21365336.120          49.900
        43.000
 112599963.473 8  87577759.249 7  21064152.360    21064154.780          49.000
        44.800
 116053082.924 7  90263531.953 6  21771264.360    21771270.140          46.100
        36.750
 109952489.255 7                  20605049.160                          43.650

 115876125.545 7  90125887.785 7  21669420.180    21669423.740          43.100
        44.550
 114609433.966 8  89140681.486 7  21417512.520    21417514.280          48.000
        45.300
 115327817.258 7  89699424.672 7  21582029.160    21582031.900          46.800
        43.750
 127024189.494 6                  23779194.120                          39.100

 127846765.902 6  99436412.229 5  23882855.020    23882859.480          39.000
        33.950
 19  2 26 15 18  3.0000000  0  9G21R05R10R06R20R21R11R12R07
 112277590.552 8  87489006.64546  21365715.700    21365709.520          49.250
        41.600
 112601055.360 8  87578608.492 7  21064356.620    21064359.040          48.650
        44.650
 116056425.923 7  90266132.063 6  21771891.500    21771897.260          46.350
        37.100
 109949573.584 7                  20604502.780                          43.750

 115876897.492 7  90126488.182 7  21669564.520    21669568.100          42.450
        44.000
 114608401.406 7  89139878.382 7  21417319.560    21417321.320          47.600
        44.700
 115328027.917 7  89699588.520 7  21582068.580    21582071.320          47.000
        43.700
 127021838.417 6                  23778754.000                          38.000

 127842435.259 6  99433043.964 5  23882046.000    23882050.460          40.050
        34.950
 19  2 26 15 18  4.0000000  0  9G21R05R10R06R20R21R11R12R07
 112279553.118 8  87490535.91746  21366089.160    21366083.000          48.650
        40.300
 112602148.340 7  87579458.587 7  21064561.080    21064563.500          47.850
        43.400
 116059768.892 7  90268732.144 6  21772518.640    21772524.420          47.150
        38.900
 109946658.428 7                  20603956.480                          44.150

 115877669.768 6  90127088.841 7  21669708.940    21669712.520          40.950
        43.750
 114607368.884 7  89139075.309 7  21417126.620    21417128.360          46.950
        43.600
 115328239.242 7  89699752.885 7  21582108.140    21582110.860          46.650
        43.600
 127019488.032 6                  23778314.000                          40.600

 127838104.215 6  99429675.365 6  23881236.880    23881241.380          41.450
        36.900
 19  2 26 15 18  5.0000000  0  9G21R05R10R06R20R21R11R12R07
 112281514.807 8  87492064.51046  21366462.460    21366456.280          48.650
        41.050
 112603241.266 7  87580308.637 7  21064765.540    21064767.940          47.700
        43.050
 116063113.175 7  90271333.253 6  21773146.000    21773151.820          47.300
        37.800
 109943744.339 7                  20603410.380                          43.650

 115878440.967 6  90127688.664 7  21669853.160    21669856.740          41.200
        43.400
 114606335.441 7  89138271.520 7  21416933.520    21416935.220          46.900
        44.100
 115328451.314 7  89699917.839 7  21582147.820    21582150.560          47.350
        43.900
 127017137.340 6                  23777873.960                          40.750

 127833774.292 6  99426307.637 6  23880428.020    23880432.500          41.200
        36.500
 19  2 26 15 18  6.0000000  0  9G21R05R10R06R20R21R11R12R07
 112283477.150 8  87493593.61147  21366835.880    21366829.700          49.550
        43.250
 112604335.443 8  87581159.658 7  21064970.220    21064972.640          48.650
        44.650
 116066458.015 7  90273934.794 6  21773773.500    21773779.320          45.600
        37.600
 109940831.021 7                  20602864.400                          43.300

 115879212.681 7  90128288.882 7  21669997.480    21670001.060          42.900
        44.600
 114605302.582 7  89137468.181 7  21416740.500    21416742.220          47.950
        45.200
 115328664.680 7  89700083.797 7  21582187.760    21582190.480          46.850
        44.600
 127014787.874 6                  23777434.120                          39.350

 127829444.387 6  99422939.921 5  23879619.200    23879623.640          38.500
        32.050
 19  2 26 15 18  7.0000000  0  9G21R05R10R06R20R21R11R12R07
 112285439.835 8  87495122.97447  21367209.360    21367203.200          49.600
        42.900
 112605430.572 8  87582011.431 7  21065175.080    21065177.500          48.850
        44.950
 116069802.885 7  90276536.348 6  21774400.980    21774406.800          45.600
        36.950
 109937917.978 7                  20602318.520                          43.250

 115879984.652 7  90128889.290 7  21670141.840    21670145.420          42.800
        44.950
 114604269.944 7  89136665.018 7  21416547.520    21416549.240          47.800
        45.600
 115328878.869 7  89700250.386 7  21582227.860    21582230.560          47.050
        44.550
 127012439.393 6                  23776994.480                          40.050

 127825113.926 6  99419571.781 5  23878810.300    23878814.660          38.600
        32.650
 19  2 26 15 18  8.0000000  0  9G21R05R10R06R20R21R11R12R07
 112287402.722 8  87496652.49847  21367582.900    21367576.720          49.850
        43.050
 112606526.637 8  87582863.931 7  21065380.140    21065382.540          48.750
        44.850
 116073147.954 7  90279138.063 6  21775028.520    21775034.320          45.550
        36.600
 109935005.519 7                  20601772.760                          42.950

 115880756.714 7  90129489.772 7  21670286.200    21670289.800          42.600
        44.450
 114603237.237 8  89135861.806 7  21416354.540    21416356.260          48.000
        45.400
 115329093.710 7  89700417.484 7  21582268.060    21582270.780          46.650
        44.650
 127010091.479 6                  23776554.960                          39.350

 127820783.313 6  99416203.524 5  23878001.340    23878005.660          38.100
        31.750
 19  2 26 15 18  9.0000000  0  9G21R05R10R06R20R21R11R12R07
 112289365.397 8  87498181.85947  21367956.380    21367950.220          49.800
        43.000
 112607623.142 8  87583716.773 7  21065585.260    21065587.660          48.950
        45.000
 116076493.247 7  90281739.955 6  21775656.080    21775661.900          45.700
        36.650
 109932093.381 7                  20601227.020                          43.250

 115881528.370 7  90130089.949 7  21670430.480    21670434.120          42.850
        44.850
 114602204.230 8  89135058.365 7  21416161.500    21416163.220          48.050
        45.550
 115329309.256 7  89700585.131 7  21582308.400    21582311.100          46.700
        44.300
 127007743.949 6                  23776115.500                          38.950

 127816452.394 6  99412835.038 5  23877192.300    23877196.600          38.350
        32.450
 19  2 26 15 18 10.0000000  0  9G21R05R10R06R20R21R11R12R07
 112291328.344 8  87499711.42447  21368329.900    21368323.740          49.850
        42.600
 112608720.684 8  87584570.417 7  21065790.580    21065792.980          48.900
        45.200
 116079838.732 7  90284341.995 6  21776283.700    21776289.520          45.450
        36.400
 109929181.885 7                  20600681.440                          43.150

 115882300.215 7  90130690.275 7  21670574.840    21670578.460          42.600
        45.200
 114601171.173 7  89134254.875 7  21415968.460    21415970.160          47.950
        45.650
 115329525.464 7  89700753.289 7  21582348.860    21582351.560          46.700
        44.400
 127005396.972 6                  23775676.180                          39.950

 127812121.390 6  99409466.489 5  23876383.220    23876387.520          38.550
        32.350
 19  2 26 15 18 11.0000000  0  9G21R05R10R06R20R21R11R12R07
 112293291.596 8  87501241.23147  21368703.480    21368697.340          49.700
        43.000
 112609819.178 8  87585424.801 7  21065996.080    21065998.480          48.950
        45.000
 116083184.695 7  90286944.410 6  21776911.400    21776917.240          45.450
        36.250
 109926271.019 7                  20600135.940                          43.600

 115883072.213 7  90131290.724 7  21670719.200    21670722.840          42.750
        44.850
 114600138.351 8  89133451.567 7  21415775.460    21415777.160          48.000
        45.450
 115329742.704 7  89700922.249 7  21582389.520    21582392.220          46.750
        43.950
 127003050.954 6                  23775237.020                          40.000

 127807790.332 6  99406097.909 5  23875574.160    23875578.420          39.000
        33.900
 19  2 26 15 18 12.0000000  0  9G21R05R10R06R20R21R11R12R07
 112295255.330 8  87502771.41347  21369077.180    21369071.020          49.800
        42.600
 112610918.843 8  87586280.102 7  21066201.800    21066204.200          49.100
        45.050
 116086531.432 7  90289547.433 5  21777539.260    21777545.060          45.100
        35.600
 109923361.127 7                  20599590.620                          43.600

 115883844.545 7  90131891.435 7  21670863.620    21670867.280          42.950
        45.000
 114599105.839 7  89132648.500 7  21415582.520    21415584.220          47.950
        45.600
 115329961.141 7  89701092.143 7  21582430.380    21582433.080          46.400
        43.850
 127000705.930 6                  23774798.060                          39.600

 127803459.630 6  99402729.608 5  23874765.160    23874769.400          37.900
        33.650
 19  2 26 15 18 13.0000000  0  9G21R05R10R06R20R21R11R12R07
 112297219.257 8  87504301.75047  21369450.900    21369444.760          49.800
        43.150
 112612019.405 8  87587136.097 7  21066407.680    21066410.080          49.000
        45.650
 116089878.485 7  90292150.704 6  21778167.160    21778172.980          44.800
        36.000
 109920451.873 7                  20599045.420                          43.400

 115884616.968 7  90132492.211 7  21671008.080    21671011.720          42.750
        44.950
 114598073.241 7  89131845.369 7  21415389.540    21415391.260          47.900
        45.400
 115330180.316 7  89701262.605 7  21582471.420    21582474.100          46.550
        43.850
 126998361.493 6                  23774359.160                          39.550

 127799128.899 6  99399361.270 5  23873956.140    23873960.380          37.650
        33.900
 19  2 26 15 18 14.0000000  0  9G21R05R10R06R20R21R11R12R07
 112299183.117 8  87505832.02847  21369824.600    21369818.460          49.700
        42.700
 112613120.594 8  87587992.575 7  21066613.680    21066616.080          48.900
        45.650
 116093225.481 7  90294753.923 6  21778795.060    21778800.860          44.900
        36.600
 109917542.899 7                  20598500.300                          42.800

 115885389.204 7  90133092.843 7  21671152.520    21671156.140          42.600
        44.700
